[{"id": "5b778007-797e-4313-b34c-c7c4812365bb", "junctionName": "SwamiVivekananda", "cameraUsage": "ANPR", "observationDateTime": "2024-02-21T09:50:35+05:30", "vehicleType": "Motorbike", "alertType": "RED_LIGHT_VIOLATION_DETECTION", "location": {"coordinates": [77.631421, 12.981592], "type": "Point"}}, {"location": {"type": "Point", "coordinates": [77.571138, 13.008491]}, "id": "5b778007-797e-4313-b34c-c7c4812365bb", "vehicleType": "Car", "alertType": "STOP_LINE_VIOLATION", "observationDateTime": "2024-02-21T13:29:49+05:30", "cameraUsage": "ANPR", "junctionName": "SampigeRoad"}, {"id": "5b778007-797e-4313-b34c-c7c4812365bb", "junctionName": "JPnagar-8thmain-9thcross", "cameraUsage": "ANPR", "observationDateTime": "2024-02-21T13:30:06+05:30", "vehicleType": "Motorbike", "alertType": "RED_LIGHT_VIOLATION_DETECTION", "location": {"coordinates": [77.595183, 12.910289], "type": "Point"}}, {"id": "5b778007-797e-4313-b34c-c7c4812365bb", "junctionName": "bashyamcirclerajajinagar", "cameraUsage": "ANPR", "observationDateTime": "2024-02-21T13:30:04+05:30", "vehicleType": "Motorbike", "alertType": "RED_LIGHT_VIOLATION_DETECTION", "location": {"coordinates": [77.554162, 12.984416], "type": "Point"}}, {"id": "5b778007-797e-4313-b34c-c7c4812365bb", "junctionName": "TavarekereMainJN", "cameraUsage": "ANPR", "observationDateTime": "2024-02-21T13:30:04+05:30", "vehicleType": "Car", "alertType": "RED_LIGHT_VIOLATION_DETECTION", "location": {"coordinates": [77.609731, 12.934747], "type": "Point"}}, {"id": "5b778007-797e-4313-b34c-c7c4812365bb", "junctionName": "TavarekereMainJN", "cameraUsage": "ANPR", "observationDateTime": "2024-02-21T13:30:03+05:30", "vehicleType": "Undetermined", "alertType": "RED_LIGHT_VIOLATION_DETECTION", "location": {"coordinates": [77.609731, 12.934747], "type": "Point"}}, {"id": "5b778007-797e-4313-b34c-c7c4812365bb", "junctionName": "TavarekereMainJN", "cameraUsage": "ANPR", "observationDateTime": "2024-02-21T13:30:02+05:30", "vehicleType": "Car", "alertType": "RED_LIGHT_VIOLATION_DETECTION", "location": {"coordinates": [77.609731, 12.934747], "type": "Point"}}, {"id": "5b778007-797e-4313-b34c-c7c4812365bb", "junctionName": "GPOCircle", "cameraUsage": "ANPR", "observationDateTime": "2024-02-21T13:30:02+05:30", "vehicleType": "Motorbike", "alertType": "STOP_LINE_VIOLATION", "location": {"coordinates": [77.594711, 12.981865], "type": "Point"}}, {"id": "5b778007-797e-4313-b34c-c7c4812365bb", "junctionName": "TavarekereMainJN", "cameraUsage": "ANPR", "observationDateTime": "2024-02-21T13:30:02+05:30", "vehicleType": "Motorbike", "alertType": "RED_LIGHT_VIOLATION_DETECTION", "location": {"coordinates": [77.609731, 12.934747], "type": "Point"}}, {"id": "5b778007-797e-4313-b34c-c7c4812365bb", "junctionName": "TavarekereMainJN", "cameraUsage": "ANPR", "observationDateTime": "2024-02-21T13:30:01+05:30", "vehicleType": "Motorbike", "alertType": "STOP_LINE_VIOLATION", "location": {"coordinates": [77.609731, 12.934747], "type": "Point"}}, {"id": "5b778007-797e-4313-b34c-c7c4812365bb", "junctionName": "VanivilasJN", "cameraUsage": "ANPR", "observationDateTime": "2024-02-21T13:30:00+05:30", "vehicleType": "Car", "alertType": "LICENCE_PLATE_RECOGNITION", "location": {"coordinates": [77.576809, 12.948272], "type": "Point"}}, {"id": "5b778007-797e-4313-b34c-c7c4812365bb", "junctionName": "Mariyappacircle", "cameraUsage": "ANPR", "observationDateTime": "2024-02-21T13:30:00+05:30", "vehicleType": "Motorbike", "alertType": "STOP_LINE_VIOLATION", "location": {"coordinates": [77.63721, 13.022783], "type": "Point"}}, {"id": "5b778007-797e-4313-b34c-c7c4812365bb", "junctionName": "Mariyappacircle", "cameraUsage": "ANPR", "observationDateTime": "2024-02-21T13:29:59+05:30", "vehicleType": "Motorbike", "alertType": "RED_LIGHT_VIOLATION_DETECTION", "location": {"coordinates": [77.63721, 13.022783], "type": "Point"}}, {"alertType": "RED_LIGHT_VIOLATION_DETECTION", "observationDateTime": "2024-02-21T13:30:10+05:30", "location": {"type": "Point", "coordinates": [77.576809, 12.948272]}, "id": "5b778007-797e-4313-b34c-c7c4812365bb", "cameraUsage": "ANPR", "junctionName": "VanivilasJN", "vehicleType": "Undetermined"}, {"alertType": "STOP_LINE_VIOLATION", "observationDateTime": "2024-02-21T13:30:09+05:30", "location": {"type": "Point", "coordinates": [77.576809, 12.948272]}, "id": "5b778007-797e-4313-b34c-c7c4812365bb", "cameraUsage": "ANPR", "junctionName": "VanivilasJN", "vehicleType": "Undetermined"}, {"alertType": "RED_LIGHT_VIOLATION_DETECTION", "observationDateTime": "2024-02-21T13:30:09+05:30", "location": {"type": "Point", "coordinates": [77.576809, 12.948272]}, "id": "5b778007-797e-4313-b34c-c7c4812365bb", "cameraUsage": "ANPR", "junctionName": "VanivilasJN", "vehicleType": "Auto"}, {"alertType": "STOP_LINE_VIOLATION", "observationDateTime": "2024-02-21T13:30:09+05:30", "location": {"type": "Point", "coordinates": [77.576809, 12.948272]}, "id": "5b778007-797e-4313-b34c-c7c4812365bb", "cameraUsage": "ANPR", "junctionName": "VanivilasJN", "vehicleType": "Motorbike"}, {"alertType": "RED_LIGHT_VIOLATION_DETECTION", "observationDateTime": "2024-02-21T13:30:25+05:30", "location": {"type": "Point", "coordinates": [77.580123, 12.930848]}, "id": "5b778007-797e-4313-b34c-c7c4812365bb", "cameraUsage": "ANPR", "junctionName": "Jayanagar-4thMain", "vehicleType": "Motorbike"}, {"alertType": "RED_LIGHT_VIOLATION_DETECTION", "observationDateTime": "2024-02-21T13:30:24+05:30", "location": {"type": "Point", "coordinates": [77.580123, 12.930848]}, "id": "5b778007-797e-4313-b34c-c7c4812365bb", "cameraUsage": "ANPR", "junctionName": "Jayanagar-4thMain", "vehicleType": "Auto"}, {"alertType": "STOP_LINE_VIOLATION", "observationDateTime": "2024-02-21T13:30:24+05:30", "location": {"type": "Point", "coordinates": [77.576809, 12.948272]}, "id": "5b778007-797e-4313-b34c-c7c4812365bb", "cameraUsage": "ANPR", "junctionName": "VanivilasJN", "vehicleType": "Motorbike"}, {"alertType": "RED_LIGHT_VIOLATION_DETECTION", "observationDateTime": "2024-02-21T13:30:23+05:30", "location": {"type": "Point", "coordinates": [77.576809, 12.948272]}, "id": "5b778007-797e-4313-b34c-c7c4812365bb", "cameraUsage": "ANPR", "junctionName": "VanivilasJN", "vehicleType": "Car"}, {"alertType": "RED_LIGHT_VIOLATION_DETECTION", "observationDateTime": "2024-02-21T13:30:23+05:30", "location": {"type": "Point", "coordinates": [77.580123, 12.930848]}, "id": "5b778007-797e-4313-b34c-c7c4812365bb", "cameraUsage": "ANPR", "junctionName": "Jayanagar-4thMain", "vehicleType": "Auto"}, {"alertType": "RED_LIGHT_VIOLATION_DETECTION", "observationDateTime": "2024-02-21T13:30:23+05:30", "location": {"type": "Point", "coordinates": [77.580123, 12.930848]}, "id": "5b778007-797e-4313-b34c-c7c4812365bb", "cameraUsage": "ANPR", "junctionName": "Jayanagar-4thMain", "vehicleType": "Car"}, {"id": "5b778007-797e-4313-b34c-c7c4812365bb", "observationDateTime": "2024-02-21T13:30:34+05:30", "location": {"coordinates": [77.595183, 12.910289], "type": "Point"}, "junctionName": "JPnagar-8thmain-9thcross", "cameraUsage": "ANPR", "vehicleType": "Motorbike", "alertType": "RED_LIGHT_VIOLATION_DETECTION"}, {"id": "5b778007-797e-4313-b34c-c7c4812365bb", "junctionName": "Mariyappacircle", "cameraUsage": "ANPR", "observationDateTime": "2024-02-21T13:30:45+05:30", "vehicleType": "Motorbike", "alertType": "RED_LIGHT_VIOLATION_DETECTION", "location": {"coordinates": [77.63721, 13.022783], "type": "Point"}}, {"id": "5b778007-797e-4313-b34c-c7c4812365bb", "junctionName": "PromenadeWheelresroadJn", "cameraUsage": "ANPR", "observationDateTime": "2024-02-21T13:30:44+05:30", "vehicleType": "Motorbike", "alertType": "LICENCE_PLATE_RECOGNITION", "location": {"coordinates": [77.61448, 12.991661], "type": "Point"}}, {"id": "5b778007-797e-4313-b34c-c7c4812365bb", "junctionName": "DoddaBanaswadi", "cameraUsage": "ANPR", "observationDateTime": "2024-02-21T13:30:43+05:30", "vehicleType": "Undetermined", "alertType": "RED_LIGHT_VIOLATION_DETECTION", "location": {"coordinates": [77.643319, 13.009179], "type": "Point"}}, {"id": "5b778007-797e-4313-b34c-c7c4812365bb", "junctionName": "Aishwarya-JN", "cameraUsage": "ANPR", "observationDateTime": "2024-02-21T13:30:41+05:30", "vehicleType": "Motorbike", "alertType": "RED_LIGHT_VIOLATION_DETECTION", "location": {"coordinates": [77.633651, 12.924831], "type": "Point"}}, {"id": "5b778007-797e-4313-b34c-c7c4812365bb", "junctionName": "SwamiVivekananda", "cameraUsage": "ANPR", "observationDateTime": "2024-02-21T13:30:54+05:30", "vehicleType": "Motorbike", "alertType": "RED_LIGHT_VIOLATION_DETECTION", "location": {"coordinates": [77.631421, 12.981592], "type": "Point"}}, {"id": "5b778007-797e-4313-b34c-c7c4812365bb", "junctionName": "SwamiVivekananda", "cameraUsage": "ANPR", "observationDateTime": "2024-02-21T13:30:53+05:30", "vehicleType": "Motorbike", "alertType": "RED_LIGHT_VIOLATION_DETECTION", "location": {"coordinates": [77.631421, 12.981592], "type": "Point"}}, {"id": "5b778007-797e-4313-b34c-c7c4812365bb", "junctionName": "SwamiVivekananda", "cameraUsage": "ANPR", "observationDateTime": "2024-02-21T13:30:53+05:30", "vehicleType": "Motorbike", "alertType": "RED_LIGHT", "location": {"coordinates": [77.631421, 12.981592], "type": "Point"}}, {"id": "5b778007-797e-4313-b34c-c7c4812365bb", "junctionName": "SwamiVivekananda", "cameraUsage": "ANPR", "observationDateTime": "2024-02-21T13:30:53+05:30", "vehicleType": "Motorbike", "alertType": "RED_LIGHT", "location": {"coordinates": [77.631421, 12.981592], "type": "Point"}}, {"id": "5b778007-797e-4313-b34c-c7c4812365bb", "junctionName": "SiddahroadJN", "cameraUsage": "ANPR", "observationDateTime": "2024-02-21T13:30:52+05:30", "vehicleType": "Motorbike", "alertType": "OVER_SPEED", "location": {"coordinates": [77.591393, 12.953822], "type": "Point"}}, {"id": "5b778007-797e-4313-b34c-c7c4812365bb", "junctionName": "DoddaBanaswadi", "cameraUsage": "ANPR", "observationDateTime": "2024-02-21T13:30:52+05:30", "vehicleType": "Undetermined", "alertType": "RED_LIGHT_VIOLATION_DETECTION", "location": {"coordinates": [77.643319, 13.009179], "type": "Point"}}, {"id": "5b778007-797e-4313-b34c-c7c4812365bb", "junctionName": "SiddahroadJN", "cameraUsage": "ANPR", "observationDateTime": "2024-02-21T13:30:50+05:30", "vehicleType": "Motorbike", "alertType": "OVER_SPEED", "location": {"coordinates": [77.591393, 12.953822], "type": "Point"}}, {"id": "5b778007-797e-4313-b34c-c7c4812365bb", "junctionName": "Jayanagar-4thMain", "cameraUsage": "ANPR", "observationDateTime": "2024-02-21T13:30:50+05:30", "vehicleType": "Motorbike", "alertType": "LICENCE_PLATE_RECOGNITION", "location": {"coordinates": [77.580123, 12.930848], "type": "Point"}}, {"id": "5b778007-797e-4313-b34c-c7c4812365bb", "junctionName": "bashyamcirclerajajinagar", "cameraUsage": "ANPR", "observationDateTime": "2024-02-21T13:31:07+05:30", "vehicleType": "Motorbike", "alertType": "LICENCE_PLATE_RECOGNITION", "location": {"coordinates": [77.554162, 12.984416], "type": "Point"}}, {"id": "5b778007-797e-4313-b34c-c7c4812365bb", "junctionName": "bashyamcirclerajajinagar", "cameraUsage": "ANPR", "observationDateTime": "2024-02-21T13:31:07+05:30", "vehicleType": "Motorbike", "alertType": "LICENCE_PLATE_RECOGNITION", "location": {"coordinates": [77.554162, 12.984416], "type": "Point"}}, {"id": "5b778007-797e-4313-b34c-c7c4812365bb", "junctionName": "bashyamcirclerajajinagar", "cameraUsage": "ANPR", "observationDateTime": "2024-02-21T13:31:06+05:30", "vehicleType": "Motorbike", "alertType": "LICENCE_PLATE_RECOGNITION", "location": {"coordinates": [77.554162, 12.984416], "type": "Point"}}, {"id": "5b778007-797e-4313-b34c-c7c4812365bb", "junctionName": "bashyamcirclerajajinagar", "cameraUsage": "ANPR", "observationDateTime": "2024-02-21T13:31:06+05:30", "vehicleType": "Motorbike", "alertType": "LICENCE_PLATE_RECOGNITION", "location": {"coordinates": [77.554162, 12.984416], "type": "Point"}}, {"id": "5b778007-797e-4313-b34c-c7c4812365bb", "junctionName": "Aishwarya-JN", "cameraUsage": "ANPR", "observationDateTime": "2024-02-21T13:31:05+05:30", "vehicleType": "Motorbike", "alertType": "RED_LIGHT_VIOLATION_DETECTION", "location": {"coordinates": [77.633651, 12.924831], "type": "Point"}}, {"id": "5b778007-797e-4313-b34c-c7c4812365bb", "junctionName": "HAL-ASCJN", "cameraUsage": "ANPR", "observationDateTime": "2024-02-21T13:31:03+05:30", "vehicleType": "Bus", "alertType": "RED_LIGHT_VIOLATION_DETECTION", "location": {"coordinates": [77.620657, 12.966769], "type": "Point"}}, {"id": "5b778007-797e-4313-b34c-c7c4812365bb", "junctionName": "bashyamcirclerajajinagar", "cameraUsage": "ANPR", "observationDateTime": "2024-02-21T13:31:03+05:30", "vehicleType": "Auto", "alertType": "LICENCE_PLATE_RECOGNITION", "location": {"coordinates": [77.554162, 12.984416], "type": "Point"}}, {"id": "5b778007-797e-4313-b34c-c7c4812365bb", "junctionName": "HAL-ASCJN", "cameraUsage": "ANPR", "observationDateTime": "2024-02-21T13:31:02+05:30", "vehicleType": "Motorbike", "alertType": "RED_LIGHT_VIOLATION_DETECTION", "location": {"coordinates": [77.620657, 12.966769], "type": "Point"}}, {"id": "5b778007-797e-4313-b34c-c7c4812365bb", "junctionName": "HAL-ASCJN", "cameraUsage": "ANPR", "observationDateTime": "2024-02-21T13:31:01+05:30", "vehicleType": "Carrier", "alertType": "RED_LIGHT_VIOLATION_DETECTION", "location": {"coordinates": [77.620657, 12.966769], "type": "Point"}}, {"id": "5b778007-797e-4313-b34c-c7c4812365bb", "junctionName": "SwamiVivekananda", "cameraUsage": "ANPR", "observationDateTime": "2024-02-21T13:30:59+05:30", "vehicleType": "Motorbike", "alertType": "RED_LIGHT_VIOLATION_DETECTION", "location": {"coordinates": [77.631421, 12.981592], "type": "Point"}}, {"id": "5b778007-797e-4313-b34c-c7c4812365bb", "junctionName": "RamaiahHospital", "cameraUsage": "ANPR", "observationDateTime": "2024-02-21T13:31:16+05:30", "vehicleType": "Auto", "alertType": "RED_LIGHT_VIOLATION_DETECTION", "location": {"coordinates": [77.57128, 13.028377], "type": "Point"}}, {"id": "5b778007-797e-4313-b34c-c7c4812365bb", "junctionName": "DoddaBanaswadi", "cameraUsage": "ANPR", "observationDateTime": "2024-02-21T13:31:15+05:30", "vehicleType": "Undetermined", "alertType": "RED_LIGHT_VIOLATION_DETECTION", "location": {"coordinates": [77.643319, 13.009179], "type": "Point"}}, {"id": "5b778007-797e-4313-b34c-c7c4812365bb", "junctionName": "RamaiahHospital", "cameraUsage": "ANPR", "observationDateTime": "2024-02-21T13:31:14+05:30", "vehicleType": "Car", "alertType": "RED_LIGHT_VIOLATION_DETECTION", "location": {"coordinates": [77.57128, 13.028377], "type": "Point"}}, {"id": "5b778007-797e-4313-b34c-c7c4812365bb", "junctionName": "JPnagar-8thmain-9thcross", "cameraUsage": "ANPR", "observationDateTime": "2024-02-21T13:31:09+05:30", "vehicleType": "Motorbike", "alertType": "RED_LIGHT_VIOLATION_DETECTION", "location": {"coordinates": [77.595183, 12.910289], "type": "Point"}}, {"id": "5b778007-797e-4313-b34c-c7c4812365bb", "junctionName": "Mariyappacircle", "cameraUsage": "ANPR", "observationDateTime": "2024-02-21T13:31:09+05:30", "vehicleType": "Motorbike", "alertType": "RED_LIGHT_VIOLATION_DETECTION", "location": {"coordinates": [77.63721, 13.022783], "type": "Point"}}, {"id": "5b778007-797e-4313-b34c-c7c4812365bb", "junctionName": "IndiranagarKFCJun", "cameraUsage": "ANPR", "observationDateTime": "2024-02-21T13:31:09+05:30", "vehicleType": "Undetermined", "alertType": "STOP_LINE_VIOLATION", "location": {"coordinates": [77.640837, 12.978368], "type": "Point"}}, {"id": "5b778007-797e-4313-b34c-c7c4812365bb", "junctionName": "JPnagar-8thmain-9thcross", "cameraUsage": "ANPR", "observationDateTime": "2024-02-21T13:31:09+05:30", "vehicleType": "Undetermined", "alertType": "RED_LIGHT_VIOLATION_DETECTION", "location": {"coordinates": [77.595183, 12.910289], "type": "Point"}}, {"id": "5b778007-797e-4313-b34c-c7c4812365bb", "junctionName": "CMHHospitalJn", "cameraUsage": "ANPR", "observationDateTime": "2024-02-21T13:31:20+05:30", "vehicleType": "Motorbike", "alertType": "OVER_SPEED", "location": {"coordinates": [77.646621, 12.978562], "type": "Point"}}, {"id": "5b778007-797e-4313-b34c-c7c4812365bb", "junctionName": "RamaiahHospital", "cameraUsage": "ANPR", "observationDateTime": "2024-02-21T13:31:20+05:30", "vehicleType": "Motorbike", "alertType": "STOP_LINE_VIOLATION", "location": {"coordinates": [77.57128, 13.028377], "type": "Point"}}, {"id": "5b778007-797e-4313-b34c-c7c4812365bb", "junctionName": "SiddahroadJN", "cameraUsage": "ANPR", "observationDateTime": "2024-02-21T13:31:19+05:30", "vehicleType": "Motorbike", "alertType": "RED_LIGHT_VIOLATION_DETECTION", "location": {"coordinates": [77.591393, 12.953822], "type": "Point"}}, {"alertType": "LICENCE_PLATE_RECOGNITION", "observationDateTime": "2024-02-21T13:31:38+05:30", "location": {"type": "Point", "coordinates": [77.554162, 12.984416]}, "id": "5b778007-797e-4313-b34c-c7c4812365bb", "cameraUsage": "ANPR", "junctionName": "bashyamcirclerajajinagar", "vehicleType": "Car"}, {"alertType": "LICENCE_PLATE_RECOGNITION", "observationDateTime": "2024-02-21T13:31:34+05:30", "location": {"type": "Point", "coordinates": [77.580123, 12.930848]}, "id": "5b778007-797e-4313-b34c-c7c4812365bb", "cameraUsage": "ANPR", "junctionName": "Jayanagar-4thMain", "vehicleType": "Motorbike"}, {"alertType": "STOP_LINE_VIOLATION", "observationDateTime": "2024-02-21T13:31:33+05:30", "location": {"type": "Point", "coordinates": [77.57168, 12.960574]}, "id": "5b778007-797e-4313-b34c-c7c4812365bb", "cameraUsage": "ANPR", "junctionName": "chikkapetTPS-Jn", "vehicleType": "Auto"}, {"alertType": "LICENCE_PLATE_RECOGNITION", "observationDateTime": "2024-02-21T13:31:33+05:30", "location": {"type": "Point", "coordinates": [77.580123, 12.930848]}, "id": "5b778007-797e-4313-b34c-c7c4812365bb", "cameraUsage": "ANPR", "junctionName": "Jayanagar-4thMain", "vehicleType": "Motorbike"}, {"alertType": "RED_LIGHT_VIOLATION_DETECTION", "observationDateTime": "2024-02-21T13:31:32+05:30", "location": {"type": "Point", "coordinates": [77.57168, 12.960574]}, "id": "5b778007-797e-4313-b34c-c7c4812365bb", "cameraUsage": "ANPR", "junctionName": "chikkapetTPS-Jn", "vehicleType": "Motorbike"}, {"alertType": "GREEN_LIGHT", "observationDateTime": "2024-02-21T13:31:32+05:30", "location": {"type": "Point", "coordinates": [77.631421, 12.981592]}, "id": "5b778007-797e-4313-b34c-c7c4812365bb", "cameraUsage": "ANPR", "junctionName": "SwamiVivekananda", "vehicleType": "Motorbike"}, {"alertType": "GREEN_LIGHT", "observationDateTime": "2024-02-21T13:31:32+05:30", "location": {"type": "Point", "coordinates": [77.631421, 12.981592]}, "id": "5b778007-797e-4313-b34c-c7c4812365bb", "cameraUsage": "ANPR", "junctionName": "SwamiVivekananda", "vehicleType": "Motorbike"}, {"alertType": "STOP_LINE_VIOLATION", "observationDateTime": "2024-02-21T13:31:29+05:30", "location": {"type": "Point", "coordinates": [77.57168, 12.960574]}, "id": "5b778007-797e-4313-b34c-c7c4812365bb", "cameraUsage": "ANPR", "junctionName": "chikkapetTPS-Jn", "vehicleType": "Auto"}, {"alertType": "LICENCE_PLATE_RECOGNITION", "observationDateTime": "2024-02-21T13:31:47+05:30", "location": {"type": "Point", "coordinates": [77.554162, 12.984416]}, "id": "5b778007-797e-4313-b34c-c7c4812365bb", "cameraUsage": "ANPR", "junctionName": "bashyamcirclerajajinagar", "vehicleType": "Motorbike"}, {"alertType": "OVER_SPEED", "observationDateTime": "2024-02-21T13:31:45+05:30", "location": {"type": "Point", "coordinates": [77.646621, 12.978562]}, "id": "5b778007-797e-4313-b34c-c7c4812365bb", "cameraUsage": "ANPR", "junctionName": "CMHHospitalJn", "vehicleType": "Motorbike"}, {"alertType": "LICENCE_PLATE_RECOGNITION", "observationDateTime": "2024-02-21T13:31:43+05:30", "location": {"type": "Point", "coordinates": [77.554162, 12.984416]}, "id": "5b778007-797e-4313-b34c-c7c4812365bb", "cameraUsage": "ANPR", "junctionName": "bashyamcirclerajajinagar", "vehicleType": "Car"}, {"alertType": "LICENCE_PLATE_RECOGNITION", "observationDateTime": "2024-02-21T13:31:40+05:30", "location": {"type": "Point", "coordinates": [77.554162, 12.984416]}, "id": "5b778007-797e-4313-b34c-c7c4812365bb", "cameraUsage": "ANPR", "junctionName": "bashyamcirclerajajinagar", "vehicleType": "Car"}, {"id": "5b778007-797e-4313-b34c-c7c4812365bb", "junctionName": "JPnagar-8thmain-9thcross", "cameraUsage": "ANPR", "observationDateTime": "2024-02-21T13:31:51+05:30", "vehicleType": "Motorbike", "alertType": "RED_LIGHT_VIOLATION_DETECTION", "location": {"coordinates": [77.595183, 12.910289], "type": "Point"}}, {"id": "5b778007-797e-4313-b34c-c7c4812365bb", "junctionName": "bashyamcirclerajajinagar", "cameraUsage": "ANPR", "observationDateTime": "2024-02-21T13:31:49+05:30", "vehicleType": "Car", "alertType": "LICENCE_PLATE_RECOGNITION", "location": {"coordinates": [77.554162, 12.984416], "type": "Point"}}, {"id": "5b778007-797e-4313-b34c-c7c4812365bb", "junctionName": "BRVJn", "cameraUsage": "ANPR", "observationDateTime": "2024-02-21T13:32:04+05:30", "vehicleType": "Motorbike", "alertType": "RED_LIGHT_VIOLATION_DETECTION", "location": {"coordinates": [77.602438, 12.979232], "type": "Point"}}, {"id": "5b778007-797e-4313-b34c-c7c4812365bb", "junctionName": "BRVJn", "cameraUsage": "ANPR", "observationDateTime": "2024-02-21T13:32:03+05:30", "vehicleType": "Car", "alertType": "RED_LIGHT_VIOLATION_DETECTION", "location": {"coordinates": [77.602438, 12.979232], "type": "Point"}}, {"id": "5b778007-797e-4313-b34c-c7c4812365bb", "junctionName": "BRVJn", "cameraUsage": "ANPR", "observationDateTime": "2024-02-21T13:32:02+05:30", "vehicleType": "Car", "alertType": "RED_LIGHT_VIOLATION_DETECTION", "location": {"coordinates": [77.602438, 12.979232], "type": "Point"}}, {"id": "5b778007-797e-4313-b34c-c7c4812365bb", "junctionName": "BRVJn", "cameraUsage": "ANPR", "observationDateTime": "2024-02-21T13:32:02+05:30", "vehicleType": "Car", "alertType": "RED_LIGHT_VIOLATION_DETECTION", "location": {"coordinates": [77.602438, 12.979232], "type": "Point"}}, {"id": "5b778007-797e-4313-b34c-c7c4812365bb", "junctionName": "bashyamcirclerajajinagar", "cameraUsage": "ANPR", "observationDateTime": "2024-02-21T13:32:01+05:30", "vehicleType": "Motorbike", "alertType": "LICENCE_PLATE_RECOGNITION", "location": {"coordinates": [77.554162, 12.984416], "type": "Point"}}, {"id": "5b778007-797e-4313-b34c-c7c4812365bb", "junctionName": "bashyamcirclerajajinagar", "cameraUsage": "ANPR", "observationDateTime": "2024-02-21T13:32:00+05:30", "vehicleType": "Motorbike", "alertType": "LICENCE_PLATE_RECOGNITION", "location": {"coordinates": [77.554162, 12.984416], "type": "Point"}}, {"alertType": "RED_LIGHT_VIOLATION_DETECTION", "observationDateTime": "2024-02-21T13:32:13+05:30", "location": {"type": "Point", "coordinates": [77.609731, 12.934747]}, "id": "5b778007-797e-4313-b34c-c7c4812365bb", "cameraUsage": "ANPR", "junctionName": "TavarekereMainJN", "vehicleType": "Motorbike"}, {"alertType": "RED_LIGHT_VIOLATION_DETECTION", "observationDateTime": "2024-02-21T13:32:13+05:30", "location": {"type": "Point", "coordinates": [77.609731, 12.934747]}, "id": "5b778007-797e-4313-b34c-c7c4812365bb", "cameraUsage": "ANPR", "junctionName": "TavarekereMainJN", "vehicleType": "Auto"}, {"alertType": "RED_LIGHT_VIOLATION_DETECTION", "observationDateTime": "2024-02-21T13:32:12+05:30", "location": {"type": "Point", "coordinates": [77.609731, 12.934747]}, "id": "5b778007-797e-4313-b34c-c7c4812365bb", "cameraUsage": "ANPR", "junctionName": "TavarekereMainJN", "vehicleType": "Motorbike"}, {"alertType": "RED_LIGHT_VIOLATION_DETECTION", "observationDateTime": "2024-02-21T13:32:12+05:30", "location": {"type": "Point", "coordinates": [77.609731, 12.934747]}, "id": "5b778007-797e-4313-b34c-c7c4812365bb", "cameraUsage": "ANPR", "junctionName": "TavarekereMainJN", "vehicleType": "Carrier"}, {"alertType": "RED_LIGHT_VIOLATION_DETECTION", "observationDateTime": "2024-02-21T13:32:25+05:30", "location": {"type": "Point", "coordinates": [77.595183, 12.910289]}, "id": "5b778007-797e-4313-b34c-c7c4812365bb", "cameraUsage": "ANPR", "junctionName": "JPnagar-8thmain-9thcross", "vehicleType": "Undetermined"}, {"alertType": "RED_LIGHT_VIOLATION_DETECTION", "observationDateTime": "2024-02-21T13:32:25+05:30", "location": {"type": "Point", "coordinates": [77.595183, 12.910289]}, "id": "5b778007-797e-4313-b34c-c7c4812365bb", "cameraUsage": "ANPR", "junctionName": "JPnagar-8thmain-9thcross", "vehicleType": "Auto"}, {"alertType": "RED_LIGHT_VIOLATION_DETECTION", "observationDateTime": "2024-02-21T13:32:25+05:30", "location": {"type": "Point", "coordinates": [77.595183, 12.910289]}, "id": "5b778007-797e-4313-b34c-c7c4812365bb", "cameraUsage": "ANPR", "junctionName": "JPnagar-8thmain-9thcross", "vehicleType": "Auto"}, {"alertType": "RED_LIGHT_VIOLATION_DETECTION", "observationDateTime": "2024-02-21T13:32:24+05:30", "location": {"type": "Point", "coordinates": [77.595183, 12.910289]}, "id": "5b778007-797e-4313-b34c-c7c4812365bb", "cameraUsage": "ANPR", "junctionName": "JPnagar-8thmain-9thcross", "vehicleType": "Auto"}, {"alertType": "LICENCE_PLATE_RECOGNITION", "observationDateTime": "2024-02-21T13:32:20+05:30", "location": {"type": "Point", "coordinates": [77.576809, 12.948272]}, "id": "5b778007-797e-4313-b34c-c7c4812365bb", "cameraUsage": "ANPR", "junctionName": "VanivilasJN", "vehicleType": "Bus"}, {"alertType": "RED_LIGHT_VIOLATION_DETECTION", "observationDateTime": "2024-02-21T13:32:36+05:30", "location": {"type": "Point", "coordinates": [77.576809, 12.948272]}, "id": "5b778007-797e-4313-b34c-c7c4812365bb", "cameraUsage": "ANPR", "junctionName": "VanivilasJN", "vehicleType": "Car"}, {"alertType": "RED_LIGHT_VIOLATION_DETECTION", "observationDateTime": "2024-02-21T13:32:36+05:30", "location": {"type": "Point", "coordinates": [77.593048, 12.989344]}, "id": "5b778007-797e-4313-b34c-c7c4812365bb", "cameraUsage": "ANPR", "junctionName": "Chindrikahotel", "vehicleType": "Undetermined"}, {"alertType": "RED_LIGHT_VIOLATION_DETECTION", "observationDateTime": "2024-02-21T13:32:35+05:30", "location": {"type": "Point", "coordinates": [77.631421, 12.981592]}, "id": "5b778007-797e-4313-b34c-c7c4812365bb", "cameraUsage": "ANPR", "junctionName": "SwamiVivekananda", "vehicleType": "Motorbike"}, {"alertType": "RED_LIGHT_VIOLATION_DETECTION", "observationDateTime": "2024-02-21T13:32:35+05:30", "location": {"type": "Point", "coordinates": [77.576809, 12.948272]}, "id": "5b778007-797e-4313-b34c-c7c4812365bb", "cameraUsage": "ANPR", "junctionName": "VanivilasJN", "vehicleType": "Car"}, {"alertType": "RED_LIGHT_VIOLATION_DETECTION", "observationDateTime": "2024-02-21T13:32:33+05:30", "location": {"type": "Point", "coordinates": [77.595183, 12.910289]}, "id": "5b778007-797e-4313-b34c-c7c4812365bb", "cameraUsage": "ANPR", "junctionName": "JPnagar-8thmain-9thcross", "vehicleType": "Car"}, {"alertType": "RED_LIGHT_VIOLATION_DETECTION", "observationDateTime": "2024-02-21T13:32:33+05:30", "location": {"type": "Point", "coordinates": [77.576809, 12.948272]}, "id": "5b778007-797e-4313-b34c-c7c4812365bb", "cameraUsage": "ANPR", "junctionName": "VanivilasJN", "vehicleType": "Car"}, {"alertType": "LICENCE_PLATE_RECOGNITION", "observationDateTime": "2024-02-21T13:32:33+05:30", "location": {"type": "Point", "coordinates": [77.571138, 13.008491]}, "id": "5b778007-797e-4313-b34c-c7c4812365bb", "cameraUsage": "ANPR", "junctionName": "SampigeRoad", "vehicleType": "Motorbike"}, {"alertType": "STOP_LINE_VIOLATION", "observationDateTime": "2024-02-21T13:32:32+05:30", "location": {"type": "Point", "coordinates": [77.602438, 12.979232]}, "id": "5b778007-797e-4313-b34c-c7c4812365bb", "cameraUsage": "ANPR", "junctionName": "BRVJn", "vehicleType": "Motorbike"}, {"alertType": "STOP_LINE_VIOLATION", "observationDateTime": "2024-02-21T13:32:31+05:30", "location": {"type": "Point", "coordinates": [77.602438, 12.979232]}, "id": "5b778007-797e-4313-b34c-c7c4812365bb", "cameraUsage": "ANPR", "junctionName": "BRVJn", "vehicleType": "Motorbike"}, {"alertType": "RED_LIGHT_VIOLATION_DETECTION", "observationDateTime": "2024-02-21T13:32:30+05:30", "location": {"type": "Point", "coordinates": [77.595183, 12.910289]}, "id": "5b778007-797e-4313-b34c-c7c4812365bb", "cameraUsage": "ANPR", "junctionName": "JPnagar-8thmain-9thcross", "vehicleType": "Auto"}, {"alertType": "STOP_LINE_VIOLATION", "observationDateTime": "2024-02-21T13:32:30+05:30", "location": {"type": "Point", "coordinates": [77.553042, 12.998237]}, "id": "5b778007-797e-4313-b34c-c7c4812365bb", "cameraUsage": "ANPR", "junctionName": "Navarangacircle", "vehicleType": "Undetermined"}, {"alertType": "LICENCE_PLATE_RECOGNITION", "observationDateTime": "2024-02-21T13:32:29+05:30", "location": {"type": "Point", "coordinates": [77.61448, 12.991661]}, "id": "5b778007-797e-4313-b34c-c7c4812365bb", "cameraUsage": "ANPR", "junctionName": "PromenadeWheelresroadJn", "vehicleType": "Auto"}, {"alertType": "RED_LIGHT_VIOLATION_DETECTION", "observationDateTime": "2024-02-21T13:32:29+05:30", "location": {"type": "Point", "coordinates": [77.595183, 12.910289]}, "id": "5b778007-797e-4313-b34c-c7c4812365bb", "cameraUsage": "ANPR", "junctionName": "JPnagar-8thmain-9thcross", "vehicleType": "Car"}, {"id": "5b778007-797e-4313-b34c-c7c4812365bb", "junctionName": "SwamiVivekananda", "cameraUsage": "ANPR", "observationDateTime": "2024-02-21T13:32:45+05:30", "vehicleType": "Carrier", "alertType": "STOP_LINE_VIOLATION", "location": {"coordinates": [77.631421, 12.981592], "type": "Point"}}, {"id": "5b778007-797e-4313-b34c-c7c4812365bb", "junctionName": "DoddaBanaswadi", "cameraUsage": "ANPR", "observationDateTime": "2024-02-21T13:32:45+05:30", "vehicleType": "Motorbike", "alertType": "STOP_LINE_VIOLATION", "location": {"coordinates": [77.643319, 13.009179], "type": "Point"}}, {"id": "5b778007-797e-4313-b34c-c7c4812365bb", "junctionName": "DoddaBanaswadi", "cameraUsage": "ANPR", "observationDateTime": "2024-02-21T13:32:45+05:30", "vehicleType": "Motorbike", "alertType": "RED_LIGHT_VIOLATION_DETECTION", "location": {"coordinates": [77.643319, 13.009179], "type": "Point"}}, {"id": "5b778007-797e-4313-b34c-c7c4812365bb", "junctionName": "chikkapetTPS-Jn", "cameraUsage": "ANPR", "observationDateTime": "2024-02-21T13:32:44+05:30", "vehicleType": "Motorbike", "alertType": "RED_LIGHT_VIOLATION_DETECTION", "location": {"coordinates": [77.57168, 12.960574], "type": "Point"}}, {"id": "5b778007-797e-4313-b34c-c7c4812365bb", "junctionName": "DoddaBanaswadi", "cameraUsage": "ANPR", "observationDateTime": "2024-02-21T13:32:44+05:30", "vehicleType": "Motorbike", "alertType": "RED_LIGHT_VIOLATION_DETECTION", "location": {"coordinates": [77.643319, 13.009179], "type": "Point"}}, {"id": "5b778007-797e-4313-b34c-c7c4812365bb", "junctionName": "chikkapetTPS-Jn", "cameraUsage": "ANPR", "observationDateTime": "2024-02-21T13:32:44+05:30", "vehicleType": "Motorbike", "alertType": "STOP_LINE_VIOLATION", "location": {"coordinates": [77.57168, 12.960574], "type": "Point"}}, {"id": "5b778007-797e-4313-b34c-c7c4812365bb", "junctionName": "Jayanagar-4thMain", "cameraUsage": "ANPR", "observationDateTime": "2024-02-21T13:32:43+05:30", "vehicleType": "Motorbike", "alertType": "RED_LIGHT_VIOLATION_DETECTION", "location": {"coordinates": [77.580123, 12.930848], "type": "Point"}}, {"id": "5b778007-797e-4313-b34c-c7c4812365bb", "junctionName": "DoddaBanaswadi", "cameraUsage": "ANPR", "observationDateTime": "2024-02-21T13:32:43+05:30", "vehicleType": "Carrier", "alertType": "RED_LIGHT_VIOLATION_DETECTION", "location": {"coordinates": [77.643319, 13.009179], "type": "Point"}}, {"id": "5b778007-797e-4313-b34c-c7c4812365bb", "junctionName": "Jayanagar-4thMain", "cameraUsage": "ANPR", "observationDateTime": "2024-02-21T13:32:42+05:30", "vehicleType": "Motorbike", "alertType": "STOP_LINE_VIOLATION", "location": {"coordinates": [77.580123, 12.930848], "type": "Point"}}, {"id": "5b778007-797e-4313-b34c-c7c4812365bb", "junctionName": "DoddaBanaswadi", "cameraUsage": "ANPR", "observationDateTime": "2024-02-21T13:32:42+05:30", "vehicleType": "Motorbike", "alertType": "RED_LIGHT_VIOLATION_DETECTION", "location": {"coordinates": [77.643319, 13.009179], "type": "Point"}}, {"id": "5b778007-797e-4313-b34c-c7c4812365bb", "junctionName": "DoddaBanaswadi", "cameraUsage": "ANPR", "observationDateTime": "2024-02-21T13:32:42+05:30", "vehicleType": "Car", "alertType": "RED_LIGHT_VIOLATION_DETECTION", "location": {"coordinates": [77.643319, 13.009179], "type": "Point"}}, {"id": "5b778007-797e-4313-b34c-c7c4812365bb", "junctionName": "SwamiVivekananda", "cameraUsage": "ANPR", "observationDateTime": "2024-02-21T13:32:42+05:30", "vehicleType": "Motorbike", "alertType": "RED_LIGHT_VIOLATION_DETECTION", "location": {"coordinates": [77.631421, 12.981592], "type": "Point"}}, {"id": "5b778007-797e-4313-b34c-c7c4812365bb", "junctionName": "DoddaBanaswadi", "cameraUsage": "ANPR", "observationDateTime": "2024-02-21T13:32:42+05:30", "vehicleType": "Motorbike", "alertType": "RED_LIGHT_VIOLATION_DETECTION", "location": {"coordinates": [77.643319, 13.009179], "type": "Point"}}, {"id": "5b778007-797e-4313-b34c-c7c4812365bb", "junctionName": "Jayanagar-4thMain", "cameraUsage": "ANPR", "observationDateTime": "2024-02-21T13:32:41+05:30", "vehicleType": "Undetermined", "alertType": "RED_LIGHT_VIOLATION_DETECTION", "location": {"coordinates": [77.580123, 12.930848], "type": "Point"}}, {"id": "5b778007-797e-4313-b34c-c7c4812365bb", "junctionName": "Jayanagar-4thMain", "cameraUsage": "ANPR", "observationDateTime": "2024-02-21T13:32:41+05:30", "vehicleType": "Undetermined", "alertType": "STOP_LINE_VIOLATION", "location": {"coordinates": [77.580123, 12.930848], "type": "Point"}}, {"id": "5b778007-797e-4313-b34c-c7c4812365bb", "junctionName": "Jayanagar-4thMain", "cameraUsage": "ANPR", "observationDateTime": "2024-02-21T13:32:41+05:30", "vehicleType": "Undetermined", "alertType": "RED_LIGHT_VIOLATION_DETECTION", "location": {"coordinates": [77.580123, 12.930848], "type": "Point"}}, {"id": "5b778007-797e-4313-b34c-c7c4812365bb", "junctionName": "SwamiVivekananda", "cameraUsage": "ANPR", "observationDateTime": "2024-02-21T13:32:41+05:30", "vehicleType": "Motorbike", "alertType": "RED_LIGHT_VIOLATION_DETECTION", "location": {"coordinates": [77.631421, 12.981592], "type": "Point"}}, {"id": "5b778007-797e-4313-b34c-c7c4812365bb", "junctionName": "DoddaBanaswadi", "cameraUsage": "ANPR", "observationDateTime": "2024-02-21T13:32:41+05:30", "vehicleType": "Motorbike", "alertType": "RED_LIGHT_VIOLATION_DETECTION", "location": {"coordinates": [77.643319, 13.009179], "type": "Point"}}, {"id": "5b778007-797e-4313-b34c-c7c4812365bb", "junctionName": "chikkapetTPS-Jn", "cameraUsage": "ANPR", "observationDateTime": "2024-02-21T13:32:40+05:30", "vehicleType": "Auto", "alertType": "RED_LIGHT_VIOLATION_DETECTION", "location": {"coordinates": [77.57168, 12.960574], "type": "Point"}}, {"id": "5b778007-797e-4313-b34c-c7c4812365bb", "junctionName": "Jayanagar-4thMain", "cameraUsage": "ANPR", "observationDateTime": "2024-02-21T13:32:40+05:30", "vehicleType": "Motorbike", "alertType": "RED_LIGHT_VIOLATION_DETECTION", "location": {"coordinates": [77.580123, 12.930848], "type": "Point"}}, {"id": "5b778007-797e-4313-b34c-c7c4812365bb", "junctionName": "Jayanagar-4thMain", "cameraUsage": "ANPR", "observationDateTime": "2024-02-21T13:32:40+05:30", "vehicleType": "Motorbike", "alertType": "RED_LIGHT_VIOLATION_DETECTION", "location": {"coordinates": [77.580123, 12.930848], "type": "Point"}}, {"id": "5b778007-797e-4313-b34c-c7c4812365bb", "junctionName": "Jayanagar-4thMain", "cameraUsage": "ANPR", "observationDateTime": "2024-02-21T13:32:40+05:30", "vehicleType": "Motorbike", "alertType": "RED_LIGHT_VIOLATION_DETECTION", "location": {"coordinates": [77.580123, 12.930848], "type": "Point"}}, {"id": "5b778007-797e-4313-b34c-c7c4812365bb", "junctionName": "SwamiVivekananda", "cameraUsage": "ANPR", "observationDateTime": "2024-02-21T13:32:40+05:30", "vehicleType": "Motorbike", "alertType": "RED_LIGHT_VIOLATION_DETECTION", "location": {"coordinates": [77.631421, 12.981592], "type": "Point"}}, {"id": "5b778007-797e-4313-b34c-c7c4812365bb", "junctionName": "DoddaBanaswadi", "cameraUsage": "ANPR", "observationDateTime": "2024-02-21T13:32:40+05:30", "vehicleType": "Motorbike", "alertType": "RED_LIGHT_VIOLATION_DETECTION", "location": {"coordinates": [77.643319, 13.009179], "type": "Point"}}, {"id": "5b778007-797e-4313-b34c-c7c4812365bb", "junctionName": "Chindrikahotel", "cameraUsage": "ANPR", "observationDateTime": "2024-02-21T13:32:39+05:30", "vehicleType": "Motorbike", "alertType": "RED_LIGHT_VIOLATION_DETECTION", "location": {"coordinates": [77.593048, 12.989344], "type": "Point"}}, {"alertType": "LICENCE_PLATE_RECOGNITION", "observationDateTime": "2024-02-21T13:32:50+05:30", "location": {"type": "Point", "coordinates": [77.640837, 12.978368]}, "id": "5b778007-797e-4313-b34c-c7c4812365bb", "cameraUsage": "ANPR", "junctionName": "IndiranagarKFCJun", "vehicleType": "Motorbike"}, {"alertType": "STOP_LINE_VIOLATION", "observationDateTime": "2024-02-21T13:32:49+05:30", "location": {"type": "Point", "coordinates": [77.631421, 12.981592]}, "id": "5b778007-797e-4313-b34c-c7c4812365bb", "cameraUsage": "ANPR", "junctionName": "SwamiVivekananda", "vehicleType": "Motorbike"}, {"location": {"type": "Point", "coordinates": [77.595183, 12.910289]}, "id": "5b778007-797e-4313-b34c-c7c4812365bb", "vehicleType": "Motorbike", "alertType": "STOP_LINE_VIOLATION", "observationDateTime": "2024-02-21T13:33:05+05:30", "cameraUsage": "ANPR", "junctionName": "JPnagar-8thmain-9thcross"}, {"alertType": "LICENCE_PLATE_RECOGNITION", "observationDateTime": "2024-02-21T13:33:17+05:30", "location": {"type": "Point", "coordinates": [77.554162, 12.984416]}, "id": "5b778007-797e-4313-b34c-c7c4812365bb", "cameraUsage": "ANPR", "junctionName": "bashyamcirclerajajinagar", "vehicleType": "Auto"}, {"alertType": "LICENCE_PLATE_RECOGNITION", "observationDateTime": "2024-02-21T13:33:14+05:30", "location": {"type": "Point", "coordinates": [77.554162, 12.984416]}, "id": "5b778007-797e-4313-b34c-c7c4812365bb", "cameraUsage": "ANPR", "junctionName": "bashyamcirclerajajinagar", "vehicleType": "Motorbike"}, {"alertType": "LICENCE_PLATE_RECOGNITION", "observationDateTime": "2024-02-21T13:33:14+05:30", "location": {"type": "Point", "coordinates": [77.554162, 12.984416]}, "id": "5b778007-797e-4313-b34c-c7c4812365bb", "cameraUsage": "ANPR", "junctionName": "bashyamcirclerajajinagar", "vehicleType": "Motorbike"}, {"alertType": "LICENCE_PLATE_RECOGNITION", "observationDateTime": "2024-02-21T13:33:11+05:30", "location": {"type": "Point", "coordinates": [77.554162, 12.984416]}, "id": "5b778007-797e-4313-b34c-c7c4812365bb", "cameraUsage": "ANPR", "junctionName": "bashyamcirclerajajinagar", "vehicleType": "Car"}, {"alertType": "LICENCE_PLATE_RECOGNITION", "observationDateTime": "2024-02-21T13:33:09+05:30", "location": {"type": "Point", "coordinates": [77.61448, 12.991661]}, "id": "5b778007-797e-4313-b34c-c7c4812365bb", "cameraUsage": "ANPR", "junctionName": "PromenadeWheelresroadJn", "vehicleType": "Carrier"}, {"alertType": "OVER_SPEED", "observationDateTime": "2024-02-21T13:33:09+05:30", "location": {"type": "Point", "coordinates": [77.591393, 12.953822]}, "id": "5b778007-797e-4313-b34c-c7c4812365bb", "cameraUsage": "ANPR", "junctionName": "SiddahroadJN", "vehicleType": "Motorbike"}, {"id": "5b778007-797e-4313-b34c-c7c4812365bb", "observationDateTime": "2024-02-21T13:33:25+05:30", "location": {"coordinates": [77.554162, 12.984416], "type": "Point"}, "junctionName": "bashyamcirclerajajinagar", "cameraUsage": "ANPR", "vehicleType": "Car", "alertType": "LICENCE_PLATE_RECOGNITION"}, {"alertType": "LICENCE_PLATE_RECOGNITION", "observationDateTime": "2024-02-21T13:33:34+05:30", "location": {"type": "Point", "coordinates": [77.571138, 13.008491]}, "id": "5b778007-797e-4313-b34c-c7c4812365bb", "cameraUsage": "ANPR", "junctionName": "SampigeRoad", "vehicleType": "Motorbike"}, {"alertType": "LICENCE_PLATE_RECOGNITION", "observationDateTime": "2024-02-21T13:33:32+05:30", "location": {"type": "Point", "coordinates": [77.609731, 12.934747]}, "id": "5b778007-797e-4313-b34c-c7c4812365bb", "cameraUsage": "ANPR", "junctionName": "TavarekereMainJN", "vehicleType": "Car"}, {"alertType": "LICENCE_PLATE_RECOGNITION", "observationDateTime": "2024-02-21T13:33:31+05:30", "location": {"type": "Point", "coordinates": [77.554162, 12.984416]}, "id": "5b778007-797e-4313-b34c-c7c4812365bb", "cameraUsage": "ANPR", "junctionName": "bashyamcirclerajajinagar", "vehicleType": "Motorbike"}, {"alertType": "LICENCE_PLATE_RECOGNITION", "observationDateTime": "2024-02-21T13:33:29+05:30", "location": {"type": "Point", "coordinates": [77.554162, 12.984416]}, "id": "5b778007-797e-4313-b34c-c7c4812365bb", "cameraUsage": "ANPR", "junctionName": "bashyamcirclerajajinagar", "vehicleType": "Motorbike"}, {"id": "5b778007-797e-4313-b34c-c7c4812365bb", "junctionName": "Jayanagar-4thMain", "cameraUsage": "ANPR", "observationDateTime": "2024-02-21T13:33:47+05:30", "vehicleType": "Motorbike", "alertType": "LICENCE_PLATE_RECOGNITION", "location": {"coordinates": [77.580123, 12.930848], "type": "Point"}}, {"id": "5b778007-797e-4313-b34c-c7c4812365bb", "junctionName": "chikkapetTPS-Jn", "cameraUsage": "ANPR", "observationDateTime": "2024-02-21T13:33:42+05:30", "vehicleType": "Auto", "alertType": "RED_LIGHT_VIOLATION_DETECTION", "location": {"coordinates": [77.57168, 12.960574], "type": "Point"}}, {"id": "5b778007-797e-4313-b34c-c7c4812365bb", "junctionName": "chikkapetTPS-Jn", "cameraUsage": "ANPR", "observationDateTime": "2024-02-21T13:33:40+05:30", "vehicleType": "Motorbike", "alertType": "STOP_LINE_VIOLATION", "location": {"coordinates": [77.57168, 12.960574], "type": "Point"}}, {"id": "5b778007-797e-4313-b34c-c7c4812365bb", "junctionName": "Jayanagar-4thMain", "cameraUsage": "ANPR", "observationDateTime": "2024-02-21T13:33:39+05:30", "vehicleType": "Motorbike", "alertType": "LICENCE_PLATE_RECOGNITION", "location": {"coordinates": [77.580123, 12.930848], "type": "Point"}}, {"id": "5b778007-797e-4313-b34c-c7c4812365bb", "junctionName": "GPOCircle", "cameraUsage": "ANPR", "observationDateTime": "2024-02-21T13:33:52+05:30", "vehicleType": "Motorbike", "alertType": "RED_LIGHT_VIOLATION_DETECTION", "location": {"coordinates": [77.594711, 12.981865], "type": "Point"}}, {"id": "5b778007-797e-4313-b34c-c7c4812365bb", "junctionName": "GPOCircle", "cameraUsage": "ANPR", "observationDateTime": "2024-02-21T13:33:52+05:30", "vehicleType": "Motorbike", "alertType": "RED_LIGHT_VIOLATION_DETECTION", "location": {"coordinates": [77.594711, 12.981865], "type": "Point"}}, {"id": "5b778007-797e-4313-b34c-c7c4812365bb", "junctionName": "GPOCircle", "cameraUsage": "ANPR", "observationDateTime": "2024-02-21T13:33:52+05:30", "vehicleType": "Motorbike", "alertType": "STOP_LINE_VIOLATION", "location": {"coordinates": [77.594711, 12.981865], "type": "Point"}}, {"id": "5b778007-797e-4313-b34c-c7c4812365bb", "junctionName": "CMHHospitalJn", "cameraUsage": "ANPR", "observationDateTime": "2024-02-21T13:33:50+05:30", "vehicleType": "Motorbike", "alertType": "OVER_SPEED", "location": {"coordinates": [77.646621, 12.978562], "type": "Point"}}, {"alertType": "STOP_LINE_VIOLATION", "observationDateTime": "2024-02-21T13:34:03+05:30", "location": {"type": "Point", "coordinates": [77.593048, 12.989344]}, "id": "5b778007-797e-4313-b34c-c7c4812365bb", "cameraUsage": "ANPR", "junctionName": "Chindrikahotel", "vehicleType": "Motorbike"}, {"alertType": "OVER_SPEED", "observationDateTime": "2024-02-21T13:34:00+05:30", "location": {"type": "Point", "coordinates": [77.646621, 12.978562]}, "id": "5b778007-797e-4313-b34c-c7c4812365bb", "cameraUsage": "ANPR", "junctionName": "CMHHospitalJn", "vehicleType": "Motorbike"}, {"alertType": "STOP_LINE_VIOLATION", "observationDateTime": "2024-02-21T13:34:00+05:30", "location": {"type": "Point", "coordinates": [77.63721, 13.022783]}, "id": "5b778007-797e-4313-b34c-c7c4812365bb", "cameraUsage": "ANPR", "junctionName": "Mariyappacircle", "vehicleType": "Auto"}, {"alertType": "STOP_LINE_VIOLATION", "observationDateTime": "2024-02-21T13:34:00+05:30", "location": {"type": "Point", "coordinates": [77.63721, 13.022783]}, "id": "5b778007-797e-4313-b34c-c7c4812365bb", "cameraUsage": "ANPR", "junctionName": "Mariyappacircle", "vehicleType": "Auto"}, {"id": "5b778007-797e-4313-b34c-c7c4812365bb", "junctionName": "SwamiVivekananda", "cameraUsage": "ANPR", "observationDateTime": "2024-02-21T13:34:15+05:30", "vehicleType": "Motorbike", "alertType": "RED_LIGHT", "location": {"coordinates": [77.631421, 12.981592], "type": "Point"}}, {"id": "5b778007-797e-4313-b34c-c7c4812365bb", "junctionName": "SwamiVivekananda", "cameraUsage": "ANPR", "observationDateTime": "2024-02-21T13:34:15+05:30", "vehicleType": "Motorbike", "alertType": "RED_LIGHT", "location": {"coordinates": [77.631421, 12.981592], "type": "Point"}}, {"id": "5b778007-797e-4313-b34c-c7c4812365bb", "junctionName": "HAL-ASCJN", "cameraUsage": "ANPR", "observationDateTime": "2024-02-21T13:34:14+05:30", "vehicleType": "Motorbike", "alertType": "RED_LIGHT_VIOLATION_DETECTION", "location": {"coordinates": [77.620657, 12.966769], "type": "Point"}}, {"id": "5b778007-797e-4313-b34c-c7c4812365bb", "junctionName": "BRVJn", "cameraUsage": "ANPR", "observationDateTime": "2024-02-21T13:34:11+05:30", "vehicleType": "Car", "alertType": "RED_LIGHT_VIOLATION_DETECTION", "location": {"coordinates": [77.602438, 12.979232], "type": "Point"}}, {"id": "5b778007-797e-4313-b34c-c7c4812365bb", "junctionName": "BRVJn", "cameraUsage": "ANPR", "observationDateTime": "2024-02-21T13:34:11+05:30", "vehicleType": "Car", "alertType": "RED_LIGHT_VIOLATION_DETECTION", "location": {"coordinates": [77.602438, 12.979232], "type": "Point"}}, {"id": "5b778007-797e-4313-b34c-c7c4812365bb", "junctionName": "BRVJn", "cameraUsage": "ANPR", "observationDateTime": "2024-02-21T13:34:11+05:30", "vehicleType": "Car", "alertType": "STOP_LINE_VIOLATION", "location": {"coordinates": [77.602438, 12.979232], "type": "Point"}}, {"id": "5b778007-797e-4313-b34c-c7c4812365bb", "junctionName": "BRVJn", "cameraUsage": "ANPR", "observationDateTime": "2024-02-21T13:34:10+05:30", "vehicleType": "Car", "alertType": "RED_LIGHT_VIOLATION_DETECTION", "location": {"coordinates": [77.602438, 12.979232], "type": "Point"}}, {"id": "5b778007-797e-4313-b34c-c7c4812365bb", "junctionName": "BRVJn", "cameraUsage": "ANPR", "observationDateTime": "2024-02-21T13:34:09+05:30", "vehicleType": "Motorbike", "alertType": "RED_LIGHT_VIOLATION_DETECTION", "location": {"coordinates": [77.602438, 12.979232], "type": "Point"}}, {"alertType": "RED_LIGHT_VIOLATION_DETECTION", "observationDateTime": "2024-02-21T13:34:27+05:30", "location": {"type": "Point", "coordinates": [77.63721, 13.022783]}, "id": "5b778007-797e-4313-b34c-c7c4812365bb", "cameraUsage": "ANPR", "junctionName": "Mariyappacircle", "vehicleType": "Auto"}, {"alertType": "RED_LIGHT_VIOLATION_DETECTION", "observationDateTime": "2024-02-21T13:34:23+05:30", "location": {"type": "Point", "coordinates": [77.57128, 13.028377]}, "id": "5b778007-797e-4313-b34c-c7c4812365bb", "cameraUsage": "ANPR", "junctionName": "RamaiahHospital", "vehicleType": "Undetermined"}, {"alertType": "RED_LIGHT_VIOLATION_DETECTION", "observationDateTime": "2024-02-21T13:34:22+05:30", "location": {"type": "Point", "coordinates": [77.57128, 13.028377]}, "id": "5b778007-797e-4313-b34c-c7c4812365bb", "cameraUsage": "ANPR", "junctionName": "RamaiahHospital", "vehicleType": "Motorbike"}, {"alertType": "RED_LIGHT_VIOLATION_DETECTION", "observationDateTime": "2024-02-21T13:34:22+05:30", "location": {"type": "Point", "coordinates": [77.57128, 13.028377]}, "id": "5b778007-797e-4313-b34c-c7c4812365bb", "cameraUsage": "ANPR", "junctionName": "RamaiahHospital", "vehicleType": "Motorbike"}, {"alertType": "RED_LIGHT_VIOLATION_DETECTION", "observationDateTime": "2024-02-21T13:34:22+05:30", "location": {"type": "Point", "coordinates": [77.57128, 13.028377]}, "id": "5b778007-797e-4313-b34c-c7c4812365bb", "cameraUsage": "ANPR", "junctionName": "RamaiahHospital", "vehicleType": "Motorbike"}, {"alertType": "RED_LIGHT_VIOLATION_DETECTION", "observationDateTime": "2024-02-21T13:34:21+05:30", "location": {"type": "Point", "coordinates": [77.57128, 13.028377]}, "id": "5b778007-797e-4313-b34c-c7c4812365bb", "cameraUsage": "ANPR", "junctionName": "RamaiahHospital", "vehicleType": "Carrier"}, {"alertType": "RED_LIGHT_VIOLATION_DETECTION", "observationDateTime": "2024-02-21T13:34:19+05:30", "location": {"type": "Point", "coordinates": [77.609731, 12.934747]}, "id": "5b778007-797e-4313-b34c-c7c4812365bb", "cameraUsage": "ANPR", "junctionName": "TavarekereMainJN", "vehicleType": "Auto"}, {"alertType": "RED_LIGHT_VIOLATION_DETECTION", "observationDateTime": "2024-02-21T13:34:19+05:30", "location": {"type": "Point", "coordinates": [77.609731, 12.934747]}, "id": "5b778007-797e-4313-b34c-c7c4812365bb", "cameraUsage": "ANPR", "junctionName": "TavarekereMainJN", "vehicleType": "Undetermined"}, {"alertType": "RED_LIGHT_VIOLATION_DETECTION", "observationDateTime": "2024-02-21T13:34:34+05:30", "location": {"type": "Point", "coordinates": [77.615204, 12.91602]}, "id": "5b778007-797e-4313-b34c-c7c4812365bb", "cameraUsage": "ANPR", "junctionName": "AXASignal", "vehicleType": "Motorbike"}, {"alertType": "STOP_LINE_VIOLATION", "observationDateTime": "2024-02-21T13:34:34+05:30", "location": {"type": "Point", "coordinates": [77.615204, 12.91602]}, "id": "5b778007-797e-4313-b34c-c7c4812365bb", "cameraUsage": "ANPR", "junctionName": "AXASignal", "vehicleType": "Motorbike"}, {"alertType": "RED_LIGHT_VIOLATION_DETECTION", "observationDateTime": "2024-02-21T13:34:34+05:30", "location": {"type": "Point", "coordinates": [77.615204, 12.91602]}, "id": "5b778007-797e-4313-b34c-c7c4812365bb", "cameraUsage": "ANPR", "junctionName": "AXASignal", "vehicleType": "Motorbike"}, {"alertType": "RED_LIGHT_VIOLATION_DETECTION", "observationDateTime": "2024-02-21T13:34:32+05:30", "location": {"type": "Point", "coordinates": [77.615204, 12.91602]}, "id": "5b778007-797e-4313-b34c-c7c4812365bb", "cameraUsage": "ANPR", "junctionName": "AXASignal", "vehicleType": "Motorbike"}, {"alertType": "RED_LIGHT_VIOLATION_DETECTION", "observationDateTime": "2024-02-21T13:34:32+05:30", "location": {"type": "Point", "coordinates": [77.615204, 12.91602]}, "id": "5b778007-797e-4313-b34c-c7c4812365bb", "cameraUsage": "ANPR", "junctionName": "AXASignal", "vehicleType": "Motorbike"}, {"alertType": "RED_LIGHT_VIOLATION_DETECTION", "observationDateTime": "2024-02-21T13:34:32+05:30", "location": {"type": "Point", "coordinates": [77.57128, 13.028377]}, "id": "5b778007-797e-4313-b34c-c7c4812365bb", "cameraUsage": "ANPR", "junctionName": "RamaiahHospital", "vehicleType": "Car"}, {"alertType": "RED_LIGHT_VIOLATION_DETECTION", "observationDateTime": "2024-02-21T13:34:32+05:30", "location": {"type": "Point", "coordinates": [77.615204, 12.91602]}, "id": "5b778007-797e-4313-b34c-c7c4812365bb", "cameraUsage": "ANPR", "junctionName": "AXASignal", "vehicleType": "Car"}, {"alertType": "RED_LIGHT_VIOLATION_DETECTION", "observationDateTime": "2024-02-21T13:34:32+05:30", "location": {"type": "Point", "coordinates": [77.615204, 12.91602]}, "id": "5b778007-797e-4313-b34c-c7c4812365bb", "cameraUsage": "ANPR", "junctionName": "AXASignal", "vehicleType": "Undetermined"}, {"alertType": "STOP_LINE_VIOLATION", "observationDateTime": "2024-02-21T13:34:31+05:30", "location": {"type": "Point", "coordinates": [77.57128, 13.028377]}, "id": "5b778007-797e-4313-b34c-c7c4812365bb", "cameraUsage": "ANPR", "junctionName": "RamaiahHospital", "vehicleType": "Undetermined"}, {"id": "5b778007-797e-4313-b34c-c7c4812365bb", "junctionName": "Jayanagar-4thMain", "cameraUsage": "ANPR", "observationDateTime": "2024-02-21T13:34:44+05:30", "vehicleType": "Motorbike", "alertType": "STOP_LINE_VIOLATION", "location": {"coordinates": [77.580123, 12.930848], "type": "Point"}}, {"id": "5b778007-797e-4313-b34c-c7c4812365bb", "junctionName": "HAL-ASCJN", "cameraUsage": "ANPR", "observationDateTime": "2024-02-21T13:34:43+05:30", "vehicleType": "Auto", "alertType": "STOP_LINE_VIOLATION", "location": {"coordinates": [77.620657, 12.966769], "type": "Point"}}, {"id": "5b778007-797e-4313-b34c-c7c4812365bb", "junctionName": "SwamiVivekananda", "cameraUsage": "ANPR", "observationDateTime": "2024-02-21T13:34:54+05:30", "vehicleType": "Motorbike", "alertType": "GREEN_LIGHT", "location": {"coordinates": [77.631421, 12.981592], "type": "Point"}}, {"id": "5b778007-797e-4313-b34c-c7c4812365bb", "junctionName": "SwamiVivekananda", "cameraUsage": "ANPR", "observationDateTime": "2024-02-21T13:34:54+05:30", "vehicleType": "Motorbike", "alertType": "GREEN_LIGHT", "location": {"coordinates": [77.631421, 12.981592], "type": "Point"}}, {"id": "5b778007-797e-4313-b34c-c7c4812365bb", "junctionName": "VanivilasJN", "cameraUsage": "ANPR", "observationDateTime": "2024-02-21T13:34:53+05:30", "vehicleType": "Motorbike", "alertType": "RED_LIGHT_VIOLATION_DETECTION", "location": {"coordinates": [77.576809, 12.948272], "type": "Point"}}, {"id": "5b778007-797e-4313-b34c-c7c4812365bb", "junctionName": "Jayanagar-4thMain", "cameraUsage": "ANPR", "observationDateTime": "2024-02-21T13:34:52+05:30", "vehicleType": "Car", "alertType": "RED_LIGHT_VIOLATION_DETECTION", "location": {"coordinates": [77.580123, 12.930848], "type": "Point"}}, {"id": "5b778007-797e-4313-b34c-c7c4812365bb", "junctionName": "VanivilasJN", "cameraUsage": "ANPR", "observationDateTime": "2024-02-21T13:34:52+05:30", "vehicleType": "Car", "alertType": "RED_LIGHT_VIOLATION_DETECTION", "location": {"coordinates": [77.576809, 12.948272], "type": "Point"}}, {"id": "5b778007-797e-4313-b34c-c7c4812365bb", "junctionName": "VanivilasJN", "cameraUsage": "ANPR", "observationDateTime": "2024-02-21T13:34:52+05:30", "vehicleType": "Carrier", "alertType": "RED_LIGHT_VIOLATION_DETECTION", "location": {"coordinates": [77.576809, 12.948272], "type": "Point"}}, {"id": "5b778007-797e-4313-b34c-c7c4812365bb", "junctionName": "VanivilasJN", "cameraUsage": "ANPR", "observationDateTime": "2024-02-21T13:34:52+05:30", "vehicleType": "Carrier", "alertType": "RED_LIGHT_VIOLATION_DETECTION", "location": {"coordinates": [77.576809, 12.948272], "type": "Point"}}, {"id": "5b778007-797e-4313-b34c-c7c4812365bb", "junctionName": "Jayanagar-4thMain", "cameraUsage": "ANPR", "observationDateTime": "2024-02-21T13:34:51+05:30", "vehicleType": "Auto", "alertType": "RED_LIGHT_VIOLATION_DETECTION", "location": {"coordinates": [77.580123, 12.930848], "type": "Point"}}, {"id": "5b778007-797e-4313-b34c-c7c4812365bb", "junctionName": "Jayanagar-4thMain", "cameraUsage": "ANPR", "observationDateTime": "2024-02-21T13:34:51+05:30", "vehicleType": "Motorbike", "alertType": "RED_LIGHT_VIOLATION_DETECTION", "location": {"coordinates": [77.580123, 12.930848], "type": "Point"}}, {"id": "5b778007-797e-4313-b34c-c7c4812365bb", "junctionName": "Jayanagar-4thMain", "cameraUsage": "ANPR", "observationDateTime": "2024-02-21T13:34:51+05:30", "vehicleType": "Auto", "alertType": "RED_LIGHT_VIOLATION_DETECTION", "location": {"coordinates": [77.580123, 12.930848], "type": "Point"}}, {"id": "5b778007-797e-4313-b34c-c7c4812365bb", "junctionName": "BRVJn", "cameraUsage": "ANPR", "observationDateTime": "2024-02-21T13:34:50+05:30", "vehicleType": "Car", "alertType": "RED_LIGHT_VIOLATION_DETECTION", "location": {"coordinates": [77.602438, 12.979232], "type": "Point"}}, {"id": "5b778007-797e-4313-b34c-c7c4812365bb", "junctionName": "Jayanagar-4thMain", "cameraUsage": "ANPR", "observationDateTime": "2024-02-21T13:34:49+05:30", "vehicleType": "Motorbike", "alertType": "RED_LIGHT_VIOLATION_DETECTION", "location": {"coordinates": [77.580123, 12.930848], "type": "Point"}}, {"id": "5b778007-797e-4313-b34c-c7c4812365bb", "junctionName": "Jayanagar-4thMain", "cameraUsage": "ANPR", "observationDateTime": "2024-02-21T13:34:49+05:30", "vehicleType": "Motorbike", "alertType": "STOP_LINE_VIOLATION", "location": {"coordinates": [77.580123, 12.930848], "type": "Point"}}, {"id": "5b778007-797e-4313-b34c-c7c4812365bb", "junctionName": "Jayanagar-4thMain", "cameraUsage": "ANPR", "observationDateTime": "2024-02-21T13:34:49+05:30", "vehicleType": "Auto", "alertType": "RED_LIGHT_VIOLATION_DETECTION", "location": {"coordinates": [77.580123, 12.930848], "type": "Point"}}, {"id": "5b778007-797e-4313-b34c-c7c4812365bb", "junctionName": "BRVJn", "cameraUsage": "ANPR", "observationDateTime": "2024-02-21T13:34:49+05:30", "vehicleType": "Motorbike", "alertType": "STOP_LINE_VIOLATION", "location": {"coordinates": [77.602438, 12.979232], "type": "Point"}}, {"id": "5b778007-797e-4313-b34c-c7c4812365bb", "junctionName": "Jayanagar-4thMain", "cameraUsage": "ANPR", "observationDateTime": "2024-02-21T13:34:49+05:30", "vehicleType": "Car", "alertType": "RED_LIGHT_VIOLATION_DETECTION", "location": {"coordinates": [77.580123, 12.930848], "type": "Point"}}, {"id": "5b778007-797e-4313-b34c-c7c4812365bb", "junctionName": "Jayanagar-4thMain", "cameraUsage": "ANPR", "observationDateTime": "2024-02-21T13:34:49+05:30", "vehicleType": "Car", "alertType": "RED_LIGHT_VIOLATION_DETECTION", "location": {"coordinates": [77.580123, 12.930848], "type": "Point"}}, {"alertType": "STOP_LINE_VIOLATION", "observationDateTime": "2024-02-21T13:35:04+05:30", "location": {"type": "Point", "coordinates": [77.57168, 12.960574]}, "id": "5b778007-797e-4313-b34c-c7c4812365bb", "cameraUsage": "ANPR", "junctionName": "chikkapetTPS-Jn", "vehicleType": "Motorbike"}, {"alertType": "STOP_LINE_VIOLATION", "observationDateTime": "2024-02-21T13:35:04+05:30", "location": {"type": "Point", "coordinates": [77.554162, 12.984416]}, "id": "5b778007-797e-4313-b34c-c7c4812365bb", "cameraUsage": "ANPR", "junctionName": "bashyamcirclerajajinagar", "vehicleType": "Motorbike"}, {"alertType": "STOP_LINE_VIOLATION", "observationDateTime": "2024-02-21T13:35:02+05:30", "location": {"type": "Point", "coordinates": [77.57168, 12.960574]}, "id": "5b778007-797e-4313-b34c-c7c4812365bb", "cameraUsage": "ANPR", "junctionName": "chikkapetTPS-Jn", "vehicleType": "Bus"}, {"alertType": "RED_LIGHT_VIOLATION_DETECTION", "observationDateTime": "2024-02-21T13:34:59+05:30", "location": {"type": "Point", "coordinates": [77.602438, 12.979232]}, "id": "5b778007-797e-4313-b34c-c7c4812365bb", "cameraUsage": "ANPR", "junctionName": "BRVJn", "vehicleType": "Auto"}, {"id": "5b778007-797e-4313-b34c-c7c4812365bb", "junctionName": "Navarangacircle", "cameraUsage": "ANPR", "observationDateTime": "2024-02-21T13:35:13+05:30", "vehicleType": "Undetermined", "alertType": "RED_LIGHT_VIOLATION_DETECTION", "location": {"coordinates": [77.553042, 12.998237], "type": "Point"}}, {"id": "5b778007-797e-4313-b34c-c7c4812365bb", "junctionName": "Navarangacircle", "cameraUsage": "ANPR", "observationDateTime": "2024-02-21T13:35:12+05:30", "vehicleType": "Car", "alertType": "STOP_LINE_VIOLATION", "location": {"coordinates": [77.553042, 12.998237], "type": "Point"}}, {"id": "5b778007-797e-4313-b34c-c7c4812365bb", "junctionName": "Navarangacircle", "cameraUsage": "ANPR", "observationDateTime": "2024-02-21T13:35:12+05:30", "vehicleType": "Undetermined", "alertType": "STOP_LINE_VIOLATION", "location": {"coordinates": [77.553042, 12.998237], "type": "Point"}}, {"id": "5b778007-797e-4313-b34c-c7c4812365bb", "junctionName": "Navarangacircle", "cameraUsage": "ANPR", "observationDateTime": "2024-02-21T13:35:12+05:30", "vehicleType": "Motorbike", "alertType": "STOP_LINE_VIOLATION", "location": {"coordinates": [77.553042, 12.998237], "type": "Point"}}, {"id": "5b778007-797e-4313-b34c-c7c4812365bb", "junctionName": "RamaiahHospital", "cameraUsage": "ANPR", "observationDateTime": "2024-02-21T13:35:11+05:30", "vehicleType": "Undetermined", "alertType": "RED_LIGHT_VIOLATION_DETECTION", "location": {"coordinates": [77.57128, 13.028377], "type": "Point"}}, {"id": "5b778007-797e-4313-b34c-c7c4812365bb", "junctionName": "Navarangacircle", "cameraUsage": "ANPR", "observationDateTime": "2024-02-21T13:35:11+05:30", "vehicleType": "Undetermined", "alertType": "RED_LIGHT_VIOLATION_DETECTION", "location": {"coordinates": [77.553042, 12.998237], "type": "Point"}}, {"id": "5b778007-797e-4313-b34c-c7c4812365bb", "junctionName": "Navarangacircle", "cameraUsage": "ANPR", "observationDateTime": "2024-02-21T13:35:11+05:30", "vehicleType": "Motorbike", "alertType": "RED_LIGHT_VIOLATION_DETECTION", "location": {"coordinates": [77.553042, 12.998237], "type": "Point"}}, {"id": "5b778007-797e-4313-b34c-c7c4812365bb", "junctionName": "JPnagar-8thmain-9thcross", "cameraUsage": "ANPR", "observationDateTime": "2024-02-21T13:35:10+05:30", "vehicleType": "Auto", "alertType": "STOP_LINE_VIOLATION", "location": {"coordinates": [77.595183, 12.910289], "type": "Point"}}, {"id": "5b778007-797e-4313-b34c-c7c4812365bb", "junctionName": "KathriguppaCircle", "cameraUsage": "ANPR", "observationDateTime": "2024-02-21T13:35:09+05:30", "vehicleType": "Auto", "alertType": "STOP_LINE_VIOLATION", "location": {"coordinates": [77.549943, 12.925376], "type": "Point"}}, {"alertType": "STOP_LINE_VIOLATION", "observationDateTime": "2024-02-21T13:35:23+05:30", "location": {"type": "Point", "coordinates": [77.571138, 13.008491]}, "id": "5b778007-797e-4313-b34c-c7c4812365bb", "cameraUsage": "ANPR", "junctionName": "SampigeRoad", "vehicleType": "Car"}, {"alertType": "RED_LIGHT_VIOLATION_DETECTION", "observationDateTime": "2024-02-21T13:35:23+05:30", "location": {"type": "Point", "coordinates": [77.571138, 13.008491]}, "id": "5b778007-797e-4313-b34c-c7c4812365bb", "cameraUsage": "ANPR", "junctionName": "SampigeRoad", "vehicleType": "Motorbike"}, {"alertType": "RED_LIGHT_VIOLATION_DETECTION", "observationDateTime": "2024-02-21T13:35:21+05:30", "location": {"type": "Point", "coordinates": [77.571138, 13.008491]}, "id": "5b778007-797e-4313-b34c-c7c4812365bb", "cameraUsage": "ANPR", "junctionName": "SampigeRoad", "vehicleType": "Car"}, {"alertType": "LICENCE_PLATE_RECOGNITION", "observationDateTime": "2024-02-21T13:35:20+05:30", "location": {"type": "Point", "coordinates": [77.571138, 13.008491]}, "id": "5b778007-797e-4313-b34c-c7c4812365bb", "cameraUsage": "ANPR", "junctionName": "SampigeRoad", "vehicleType": "Motorbike"}, {"alertType": "STOP_LINE_VIOLATION", "observationDateTime": "2024-02-21T13:35:33+05:30", "location": {"type": "Point", "coordinates": [77.571138, 13.008491]}, "id": "5b778007-797e-4313-b34c-c7c4812365bb", "cameraUsage": "ANPR", "junctionName": "SampigeRoad", "vehicleType": "Undetermined"}, {"alertType": "STOP_LINE_VIOLATION", "observationDateTime": "2024-02-21T13:35:33+05:30", "location": {"type": "Point", "coordinates": [77.59061, 13.010052]}, "id": "5b778007-797e-4313-b34c-c7c4812365bb", "cameraUsage": "ANPR", "junctionName": "CALCross", "vehicleType": "Motorbike"}, {"alertType": "RED_LIGHT_VIOLATION_DETECTION", "observationDateTime": "2024-02-21T13:35:31+05:30", "location": {"type": "Point", "coordinates": [77.593048, 12.989344]}, "id": "5b778007-797e-4313-b34c-c7c4812365bb", "cameraUsage": "ANPR", "junctionName": "Chindrikahotel", "vehicleType": "Auto"}, {"alertType": "STOP_LINE_VIOLATION", "observationDateTime": "2024-02-21T13:35:46+05:30", "location": {"type": "Point", "coordinates": [77.57168, 12.960574]}, "id": "5b778007-797e-4313-b34c-c7c4812365bb", "cameraUsage": "ANPR", "junctionName": "chikkapetTPS-Jn", "vehicleType": "Undetermined"}, {"alertType": "RED_LIGHT_VIOLATION_DETECTION", "observationDateTime": "2024-02-21T13:35:45+05:30", "location": {"type": "Point", "coordinates": [77.57168, 12.960574]}, "id": "5b778007-797e-4313-b34c-c7c4812365bb", "cameraUsage": "ANPR", "junctionName": "chikkapetTPS-Jn", "vehicleType": "Motorbike"}, {"alertType": "LICENCE_PLATE_RECOGNITION", "observationDateTime": "2024-02-21T13:35:40+05:30", "location": {"type": "Point", "coordinates": [77.61448, 12.991661]}, "id": "5b778007-797e-4313-b34c-c7c4812365bb", "cameraUsage": "ANPR", "junctionName": "PromenadeWheelresroadJn", "vehicleType": "Motorbike"}, {"alertType": "LICENCE_PLATE_RECOGNITION", "observationDateTime": "2024-02-21T13:35:39+05:30", "location": {"type": "Point", "coordinates": [77.640837, 12.978368]}, "id": "5b778007-797e-4313-b34c-c7c4812365bb", "cameraUsage": "ANPR", "junctionName": "IndiranagarKFCJun", "vehicleType": "Motorbike"}, {"alertType": "RED_LIGHT_VIOLATION_DETECTION", "observationDateTime": "2024-02-21T13:35:52+05:30", "location": {"type": "Point", "coordinates": [77.594711, 12.981865]}, "id": "5b778007-797e-4313-b34c-c7c4812365bb", "cameraUsage": "ANPR", "junctionName": "GPOCircle", "vehicleType": "Motorbike"}, {"alertType": "RED_LIGHT_VIOLATION_DETECTION", "observationDateTime": "2024-02-21T13:35:50+05:30", "location": {"type": "Point", "coordinates": [77.620657, 12.966769]}, "id": "5b778007-797e-4313-b34c-c7c4812365bb", "cameraUsage": "ANPR", "junctionName": "HAL-ASCJN", "vehicleType": "Motorbike"}, {"alertType": "STOP_LINE_VIOLATION", "observationDateTime": "2024-02-21T13:35:50+05:30", "location": {"type": "Point", "coordinates": [77.602438, 12.979232]}, "id": "5b778007-797e-4313-b34c-c7c4812365bb", "cameraUsage": "ANPR", "junctionName": "BRVJn", "vehicleType": "Motorbike"}, {"alertType": "RED_LIGHT_VIOLATION_DETECTION", "observationDateTime": "2024-02-21T13:35:49+05:30", "location": {"type": "Point", "coordinates": [77.594711, 12.981865]}, "id": "5b778007-797e-4313-b34c-c7c4812365bb", "cameraUsage": "ANPR", "junctionName": "GPOCircle", "vehicleType": "Car"}, {"alertType": "LICENCE_PLATE_RECOGNITION", "observationDateTime": "2024-02-21T13:35:49+05:30", "location": {"type": "Point", "coordinates": [77.61448, 12.991661]}, "id": "5b778007-797e-4313-b34c-c7c4812365bb", "cameraUsage": "ANPR", "junctionName": "PromenadeWheelresroadJn", "vehicleType": "Motorbike"}, {"alertType": "RED_LIGHT_VIOLATION_DETECTION", "observationDateTime": "2024-02-21T13:35:49+05:30", "location": {"type": "Point", "coordinates": [77.620657, 12.966769]}, "id": "5b778007-797e-4313-b34c-c7c4812365bb", "cameraUsage": "ANPR", "junctionName": "HAL-ASCJN", "vehicleType": "Motorbike"}, {"alertType": "RED_LIGHT_VIOLATION_DETECTION", "observationDateTime": "2024-02-21T13:35:49+05:30", "location": {"type": "Point", "coordinates": [77.594711, 12.981865]}, "id": "5b778007-797e-4313-b34c-c7c4812365bb", "cameraUsage": "ANPR", "junctionName": "GPOCircle", "vehicleType": "Motorbike"}, {"alertType": "RED_LIGHT_VIOLATION_DETECTION", "observationDateTime": "2024-02-21T13:35:49+05:30", "location": {"type": "Point", "coordinates": [77.594711, 12.981865]}, "id": "5b778007-797e-4313-b34c-c7c4812365bb", "cameraUsage": "ANPR", "junctionName": "GPOCircle", "vehicleType": "Motorbike"}, {"id": "5b778007-797e-4313-b34c-c7c4812365bb", "junctionName": "Mariyappacircle", "cameraUsage": "ANPR", "observationDateTime": "2024-02-21T13:35:59+05:30", "vehicleType": "Motorbike", "alertType": "STOP_LINE_VIOLATION", "location": {"coordinates": [77.63721, 13.022783], "type": "Point"}}, {"id": "5b778007-797e-4313-b34c-c7c4812365bb", "junctionName": "SwamiVivekananda", "cameraUsage": "ANPR", "observationDateTime": "2024-02-21T13:35:59+05:30", "vehicleType": "Motorbike", "alertType": "RED_LIGHT_VIOLATION_DETECTION", "location": {"coordinates": [77.631421, 12.981592], "type": "Point"}}, {"id": "5b778007-797e-4313-b34c-c7c4812365bb", "junctionName": "Mariyappacircle", "cameraUsage": "ANPR", "observationDateTime": "2024-02-21T13:36:35+05:30", "vehicleType": "Undetermined", "alertType": "STOP_LINE_VIOLATION", "location": {"coordinates": [77.63721, 13.022783], "type": "Point"}}, {"id": "5b778007-797e-4313-b34c-c7c4812365bb", "junctionName": "SampigeRoad", "cameraUsage": "ANPR", "observationDateTime": "2024-02-21T13:36:35+05:30", "vehicleType": "Carrier", "alertType": "LICENCE_PLATE_RECOGNITION", "location": {"coordinates": [77.571138, 13.008491], "type": "Point"}}, {"id": "5b778007-797e-4313-b34c-c7c4812365bb", "junctionName": "chikkapetTPS-Jn", "cameraUsage": "ANPR", "observationDateTime": "2024-02-21T13:36:31+05:30", "vehicleType": "Motorbike", "alertType": "RED_LIGHT_VIOLATION_DETECTION", "location": {"coordinates": [77.57168, 12.960574], "type": "Point"}}, {"id": "5b778007-797e-4313-b34c-c7c4812365bb", "junctionName": "Mariyappacircle", "cameraUsage": "ANPR", "observationDateTime": "2024-02-21T13:36:30+05:30", "vehicleType": "Undetermined", "alertType": "STOP_LINE_VIOLATION", "location": {"coordinates": [77.63721, 13.022783], "type": "Point"}}, {"id": "5b778007-797e-4313-b34c-c7c4812365bb", "junctionName": "chikkapetTPS-Jn", "cameraUsage": "ANPR", "observationDateTime": "2024-02-21T13:36:30+05:30", "vehicleType": "Motorbike", "alertType": "STOP_LINE_VIOLATION", "location": {"coordinates": [77.57168, 12.960574], "type": "Point"}}, {"id": "5b778007-797e-4313-b34c-c7c4812365bb", "junctionName": "TavarekereMainJN", "cameraUsage": "ANPR", "observationDateTime": "2024-02-21T13:36:29+05:30", "vehicleType": "Motorbike", "alertType": "RED_LIGHT_VIOLATION_DETECTION", "location": {"coordinates": [77.609731, 12.934747], "type": "Point"}}, {"id": "5b778007-797e-4313-b34c-c7c4812365bb", "junctionName": "TavarekereMainJN", "cameraUsage": "ANPR", "observationDateTime": "2024-02-21T13:36:29+05:30", "vehicleType": "Motorbike", "alertType": "RED_LIGHT_VIOLATION_DETECTION", "location": {"coordinates": [77.609731, 12.934747], "type": "Point"}}, {"alertType": "RED_LIGHT_VIOLATION_DETECTION", "observationDateTime": "2024-02-21T13:36:46+05:30", "location": {"type": "Point", "coordinates": [77.571138, 13.008491]}, "id": "5b778007-797e-4313-b34c-c7c4812365bb", "cameraUsage": "ANPR", "junctionName": "SampigeRoad", "vehicleType": "Motorbike"}, {"alertType": "RED_LIGHT_VIOLATION_DETECTION", "observationDateTime": "2024-02-21T13:36:45+05:30", "location": {"type": "Point", "coordinates": [77.571138, 13.008491]}, "id": "5b778007-797e-4313-b34c-c7c4812365bb", "cameraUsage": "ANPR", "junctionName": "SampigeRoad", "vehicleType": "Motorbike"}, {"alertType": "RED_LIGHT_VIOLATION_DETECTION", "observationDateTime": "2024-02-21T13:36:45+05:30", "location": {"type": "Point", "coordinates": [77.571138, 13.008491]}, "id": "5b778007-797e-4313-b34c-c7c4812365bb", "cameraUsage": "ANPR", "junctionName": "SampigeRoad", "vehicleType": "Motorbike"}, {"alertType": "STOP_LINE_VIOLATION", "observationDateTime": "2024-02-21T13:36:40+05:30", "location": {"type": "Point", "coordinates": [77.63721, 13.022783]}, "id": "5b778007-797e-4313-b34c-c7c4812365bb", "cameraUsage": "ANPR", "junctionName": "Mariyappacircle", "vehicleType": "Undetermined"}, {"alertType": "STOP_LINE_VIOLATION", "observationDateTime": "2024-02-21T13:36:39+05:30", "location": {"type": "Point", "coordinates": [77.640837, 12.978368]}, "id": "5b778007-797e-4313-b34c-c7c4812365bb", "cameraUsage": "ANPR", "junctionName": "IndiranagarKFCJun", "vehicleType": "Car"}, {"alertType": "STOP_LINE_VIOLATION", "observationDateTime": "2024-02-21T13:36:54+05:30", "location": {"type": "Point", "coordinates": [77.61448, 12.991661]}, "id": "5b778007-797e-4313-b34c-c7c4812365bb", "cameraUsage": "ANPR", "junctionName": "PromenadeWheelresroadJn", "vehicleType": "Auto"}, {"alertType": "STOP_LINE_VIOLATION", "observationDateTime": "2024-02-21T13:36:51+05:30", "location": {"type": "Point", "coordinates": [77.571138, 13.008491]}, "id": "5b778007-797e-4313-b34c-c7c4812365bb", "cameraUsage": "ANPR", "junctionName": "SampigeRoad", "vehicleType": "Car"}, {"alertType": "RED_LIGHT_VIOLATION_DETECTION", "observationDateTime": "2024-02-21T13:36:51+05:30", "location": {"type": "Point", "coordinates": [77.571138, 13.008491]}, "id": "5b778007-797e-4313-b34c-c7c4812365bb", "cameraUsage": "ANPR", "junctionName": "SampigeRoad", "vehicleType": "Motorbike"}, {"alertType": "RED_LIGHT_VIOLATION_DETECTION", "observationDateTime": "2024-02-21T13:36:49+05:30", "location": {"type": "Point", "coordinates": [77.571138, 13.008491]}, "id": "5b778007-797e-4313-b34c-c7c4812365bb", "cameraUsage": "ANPR", "junctionName": "SampigeRoad", "vehicleType": "Car"}, {"alertType": "LICENCE_PLATE_RECOGNITION", "observationDateTime": "2024-02-21T13:36:49+05:30", "location": {"type": "Point", "coordinates": [77.571138, 13.008491]}, "id": "5b778007-797e-4313-b34c-c7c4812365bb", "cameraUsage": "ANPR", "junctionName": "SampigeRoad", "vehicleType": "Motorbike"}, {"alertType": "STOP_LINE_VIOLATION", "observationDateTime": "2024-02-21T13:37:01+05:30", "location": {"type": "Point", "coordinates": [77.63721, 13.022783]}, "id": "5b778007-797e-4313-b34c-c7c4812365bb", "cameraUsage": "ANPR", "junctionName": "Mariyappacircle", "vehicleType": "Undetermined"}, {"alertType": "RED_LIGHT_VIOLATION_DETECTION", "observationDateTime": "2024-02-21T13:37:00+05:30", "location": {"type": "Point", "coordinates": [77.593048, 12.989344]}, "id": "5b778007-797e-4313-b34c-c7c4812365bb", "cameraUsage": "ANPR", "junctionName": "Chindrikahotel", "vehicleType": "Motorbike"}, {"alertType": "LICENCE_PLATE_RECOGNITION", "observationDateTime": "2024-02-21T13:37:00+05:30", "location": {"type": "Point", "coordinates": [77.61448, 12.991661]}, "id": "5b778007-797e-4313-b34c-c7c4812365bb", "cameraUsage": "ANPR", "junctionName": "PromenadeWheelresroadJn", "vehicleType": "Motorbike"}, {"alertType": "NO_HELMET", "observationDateTime": "2024-02-21T13:37:00+05:30", "location": {"type": "Point", "coordinates": [77.595183, 12.910289]}, "id": "5b778007-797e-4313-b34c-c7c4812365bb", "cameraUsage": "ANPR", "junctionName": "JPnagar-8thmain-9thcross", "vehicleType": "Motorbike"}, {"alertType": "STOP_LINE_VIOLATION", "observationDateTime": "2024-02-21T13:37:13+05:30", "location": {"type": "Point", "coordinates": [77.57128, 13.028377]}, "id": "5b778007-797e-4313-b34c-c7c4812365bb", "cameraUsage": "ANPR", "junctionName": "RamaiahHospital", "vehicleType": "Motorbike"}, {"alertType": "RED_LIGHT_VIOLATION_DETECTION", "observationDateTime": "2024-02-21T13:37:09+05:30", "location": {"type": "Point", "coordinates": [77.580123, 12.930848]}, "id": "5b778007-797e-4313-b34c-c7c4812365bb", "cameraUsage": "ANPR", "junctionName": "Jayanagar-4thMain", "vehicleType": "Car"}, {"alertType": "RED_LIGHT_VIOLATION_DETECTION", "observationDateTime": "2024-02-21T13:37:09+05:30", "location": {"type": "Point", "coordinates": [77.580123, 12.930848]}, "id": "5b778007-797e-4313-b34c-c7c4812365bb", "cameraUsage": "ANPR", "junctionName": "Jayanagar-4thMain", "vehicleType": "Car"}, {"id": "5b778007-797e-4313-b34c-c7c4812365bb", "junctionName": "SwamiVivekananda", "cameraUsage": "ANPR", "observationDateTime": "2024-02-21T13:37:37+05:30", "vehicleType": "Motorbike", "alertType": "RED_LIGHT", "location": {"coordinates": [77.631421, 12.981592], "type": "Point"}}, {"id": "5b778007-797e-4313-b34c-c7c4812365bb", "junctionName": "Jayanagar-4thMain", "cameraUsage": "ANPR", "observationDateTime": "2024-02-21T13:37:31+05:30", "vehicleType": "Motorbike", "alertType": "RED_LIGHT_VIOLATION_DETECTION", "location": {"coordinates": [77.580123, 12.930848], "type": "Point"}}, {"id": "5b778007-797e-4313-b34c-c7c4812365bb", "junctionName": "Jayanagar-4thMain", "cameraUsage": "ANPR", "observationDateTime": "2024-02-21T13:37:31+05:30", "vehicleType": "Motorbike", "alertType": "RED_LIGHT_VIOLATION_DETECTION", "location": {"coordinates": [77.580123, 12.930848], "type": "Point"}}, {"id": "5b778007-797e-4313-b34c-c7c4812365bb", "junctionName": "PromenadeWheelresroadJn", "cameraUsage": "ANPR", "observationDateTime": "2024-02-21T13:37:31+05:30", "vehicleType": "Motorbike", "alertType": "LICENCE_PLATE_RECOGNITION", "location": {"coordinates": [77.61448, 12.991661], "type": "Point"}}, {"id": "5b778007-797e-4313-b34c-c7c4812365bb", "junctionName": "Jayanagar-4thMain", "cameraUsage": "ANPR", "observationDateTime": "2024-02-21T13:37:30+05:30", "vehicleType": "Motorbike", "alertType": "RED_LIGHT_VIOLATION_DETECTION", "location": {"coordinates": [77.580123, 12.930848], "type": "Point"}}, {"id": "5b778007-797e-4313-b34c-c7c4812365bb", "junctionName": "BRVJn", "cameraUsage": "ANPR", "observationDateTime": "2024-02-21T13:37:30+05:30", "vehicleType": "Motorbike", "alertType": "RED_LIGHT_VIOLATION_DETECTION", "location": {"coordinates": [77.602438, 12.979232], "type": "Point"}}, {"id": "5b778007-797e-4313-b34c-c7c4812365bb", "junctionName": "Jayanagar-4thMain", "cameraUsage": "ANPR", "observationDateTime": "2024-02-21T13:37:29+05:30", "vehicleType": "Undetermined", "alertType": "RED_LIGHT_VIOLATION_DETECTION", "location": {"coordinates": [77.580123, 12.930848], "type": "Point"}}, {"id": "5b778007-797e-4313-b34c-c7c4812365bb", "junctionName": "Jayanagar-4thMain", "cameraUsage": "ANPR", "observationDateTime": "2024-02-21T13:37:29+05:30", "vehicleType": "Motorbike", "alertType": "STOP_LINE_VIOLATION", "location": {"coordinates": [77.580123, 12.930848], "type": "Point"}}, {"id": "5b778007-797e-4313-b34c-c7c4812365bb", "junctionName": "BRVJn", "cameraUsage": "ANPR", "observationDateTime": "2024-02-21T13:37:29+05:30", "vehicleType": "Car", "alertType": "RED_LIGHT_VIOLATION_DETECTION", "location": {"coordinates": [77.602438, 12.979232], "type": "Point"}}, {"id": "5b778007-797e-4313-b34c-c7c4812365bb", "junctionName": "GPOCircle", "cameraUsage": "ANPR", "observationDateTime": "2024-02-21T13:37:46+05:30", "vehicleType": "Motorbike", "alertType": "RED_LIGHT_VIOLATION_DETECTION", "location": {"coordinates": [77.594711, 12.981865], "type": "Point"}}, {"id": "5b778007-797e-4313-b34c-c7c4812365bb", "junctionName": "GPOCircle", "cameraUsage": "ANPR", "observationDateTime": "2024-02-21T13:37:45+05:30", "vehicleType": "Motorbike", "alertType": "RED_LIGHT_VIOLATION_DETECTION", "location": {"coordinates": [77.594711, 12.981865], "type": "Point"}}, {"id": "5b778007-797e-4313-b34c-c7c4812365bb", "junctionName": "GPOCircle", "cameraUsage": "ANPR", "observationDateTime": "2024-02-21T13:37:45+05:30", "vehicleType": "Motorbike", "alertType": "RED_LIGHT_VIOLATION_DETECTION", "location": {"coordinates": [77.594711, 12.981865], "type": "Point"}}, {"id": "5b778007-797e-4313-b34c-c7c4812365bb", "junctionName": "GPOCircle", "cameraUsage": "ANPR", "observationDateTime": "2024-02-21T13:37:44+05:30", "vehicleType": "Car", "alertType": "RED_LIGHT_VIOLATION_DETECTION", "location": {"coordinates": [77.594711, 12.981865], "type": "Point"}}, {"id": "5b778007-797e-4313-b34c-c7c4812365bb", "junctionName": "SwamiVivekananda", "cameraUsage": "ANPR", "observationDateTime": "2024-02-21T13:37:44+05:30", "vehicleType": "Car", "alertType": "RED_LIGHT_VIOLATION_DETECTION", "location": {"coordinates": [77.631421, 12.981592], "type": "Point"}}, {"id": "5b778007-797e-4313-b34c-c7c4812365bb", "junctionName": "GPOCircle", "cameraUsage": "ANPR", "observationDateTime": "2024-02-21T13:37:43+05:30", "vehicleType": "Auto", "alertType": "STOP_LINE_VIOLATION", "location": {"coordinates": [77.594711, 12.981865], "type": "Point"}}, {"id": "5b778007-797e-4313-b34c-c7c4812365bb", "junctionName": "SwamiVivekananda", "cameraUsage": "ANPR", "observationDateTime": "2024-02-21T13:37:41+05:30", "vehicleType": "Car", "alertType": "RED_LIGHT_VIOLATION_DETECTION", "location": {"coordinates": [77.631421, 12.981592], "type": "Point"}}, {"id": "5b778007-797e-4313-b34c-c7c4812365bb", "junctionName": "SwamiVivekananda", "cameraUsage": "ANPR", "observationDateTime": "2024-02-21T13:37:39+05:30", "vehicleType": "Car", "alertType": "RED_LIGHT_VIOLATION_DETECTION", "location": {"coordinates": [77.631421, 12.981592], "type": "Point"}}, {"id": "5b778007-797e-4313-b34c-c7c4812365bb", "junctionName": "SwamiVivekananda", "cameraUsage": "ANPR", "observationDateTime": "2024-02-21T13:37:39+05:30", "vehicleType": "Auto", "alertType": "RED_LIGHT_VIOLATION_DETECTION", "location": {"coordinates": [77.631421, 12.981592], "type": "Point"}}, {"alertType": "OVER_SPEED", "observationDateTime": "2024-02-21T13:37:53+05:30", "location": {"type": "Point", "coordinates": [77.620982, 12.927565]}, "id": "5b778007-797e-4313-b34c-c7c4812365bb", "cameraUsage": "ANPR", "junctionName": "WatertankJN", "vehicleType": "Motorbike"}, {"alertType": "LICENCE_PLATE_RECOGNITION", "observationDateTime": "2024-02-21T13:37:50+05:30", "location": {"type": "Point", "coordinates": [77.609731, 12.934747]}, "id": "5b778007-797e-4313-b34c-c7c4812365bb", "cameraUsage": "ANPR", "junctionName": "TavarekereMainJN", "vehicleType": "Motorbike"}, {"alertType": "STOP_LINE_VIOLATION", "observationDateTime": "2024-02-21T13:37:50+05:30", "location": {"type": "Point", "coordinates": [77.631421, 12.981592]}, "id": "5b778007-797e-4313-b34c-c7c4812365bb", "cameraUsage": "ANPR", "junctionName": "SwamiVivekananda", "vehicleType": "Car"}, {"id": "5b778007-797e-4313-b34c-c7c4812365bb", "junctionName": "GPOCircle", "cameraUsage": "ANPR", "observationDateTime": "2024-02-21T13:38:05+05:30", "vehicleType": "Undetermined", "alertType": "RED_LIGHT_VIOLATION_DETECTION", "location": {"coordinates": [77.594711, 12.981865], "type": "Point"}}, {"id": "5b778007-797e-4313-b34c-c7c4812365bb", "junctionName": "AdugodiJN", "cameraUsage": "ANPR", "observationDateTime": "2024-02-21T13:38:00+05:30", "vehicleType": "Motorbike", "alertType": "RED_LIGHT_VIOLATION_DETECTION", "location": {"coordinates": [77.607594, 12.944023], "type": "Point"}}, {"id": "5b778007-797e-4313-b34c-c7c4812365bb", "junctionName": "AdugodiJN", "cameraUsage": "ANPR", "observationDateTime": "2024-02-21T13:37:59+05:30", "vehicleType": "Auto", "alertType": "RED_LIGHT_VIOLATION_DETECTION", "location": {"coordinates": [77.607594, 12.944023], "type": "Point"}}, {"alertType": "GREEN_LIGHT", "observationDateTime": "2024-02-21T13:38:16+05:30", "location": {"type": "Point", "coordinates": [77.631421, 12.981592]}, "id": "5b778007-797e-4313-b34c-c7c4812365bb", "cameraUsage": "ANPR", "junctionName": "SwamiVivekananda", "vehicleType": "Motorbike"}, {"alertType": "GREEN_LIGHT", "observationDateTime": "2024-02-21T13:38:16+05:30", "location": {"type": "Point", "coordinates": [77.631421, 12.981592]}, "id": "5b778007-797e-4313-b34c-c7c4812365bb", "cameraUsage": "ANPR", "junctionName": "SwamiVivekananda", "vehicleType": "Motorbike"}, {"alertType": "RED_LIGHT_VIOLATION_DETECTION", "observationDateTime": "2024-02-21T13:38:11+05:30", "location": {"type": "Point", "coordinates": [77.602438, 12.979232]}, "id": "5b778007-797e-4313-b34c-c7c4812365bb", "cameraUsage": "ANPR", "junctionName": "BRVJn", "vehicleType": "Auto"}, {"id": "5b778007-797e-4313-b34c-c7c4812365bb", "observationDateTime": "2024-02-21T13:38:21+05:30", "location": {"coordinates": [77.640837, 12.978368], "type": "Point"}, "junctionName": "IndiranagarKFCJun", "cameraUsage": "ANPR", "vehicleType": "Motorbike", "alertType": "LICENCE_PLATE_RECOGNITION"}, {"id": "5b778007-797e-4313-b34c-c7c4812365bb", "junctionName": "Jayanagar-4thMain", "cameraUsage": "ANPR", "observationDateTime": "2024-02-21T13:38:38+05:30", "vehicleType": "Motorbike", "alertType": "LICENCE_PLATE_RECOGNITION", "location": {"coordinates": [77.580123, 12.930848], "type": "Point"}}, {"id": "5b778007-797e-4313-b34c-c7c4812365bb", "junctionName": "PromenadeWheelresroadJn", "cameraUsage": "ANPR", "observationDateTime": "2024-02-21T13:38:30+05:30", "vehicleType": "Motorbike", "alertType": "LICENCE_PLATE_RECOGNITION", "location": {"coordinates": [77.61448, 12.991661], "type": "Point"}}, {"id": "5b778007-797e-4313-b34c-c7c4812365bb", "junctionName": "Jayanagar-4thMain", "cameraUsage": "ANPR", "observationDateTime": "2024-02-21T13:38:29+05:30", "vehicleType": "Motorbike", "alertType": "LICENCE_PLATE_RECOGNITION", "location": {"coordinates": [77.580123, 12.930848], "type": "Point"}}, {"id": "5b778007-797e-4313-b34c-c7c4812365bb", "junctionName": "Jayanagar-4thMain", "cameraUsage": "ANPR", "observationDateTime": "2024-02-21T13:38:41+05:30", "vehicleType": "Motorbike", "alertType": "LICENCE_PLATE_RECOGNITION", "location": {"coordinates": [77.580123, 12.930848], "type": "Point"}}, {"id": "5b778007-797e-4313-b34c-c7c4812365bb", "junctionName": "Jayanagar-4thMain", "cameraUsage": "ANPR", "observationDateTime": "2024-02-21T13:38:40+05:30", "vehicleType": "Car", "alertType": "LICENCE_PLATE_RECOGNITION", "location": {"coordinates": [77.580123, 12.930848], "type": "Point"}}, {"id": "5b778007-797e-4313-b34c-c7c4812365bb", "junctionName": "RamaiahHospital", "cameraUsage": "ANPR", "observationDateTime": "2024-02-21T13:38:39+05:30", "vehicleType": "Motorbike", "alertType": "RED_LIGHT_VIOLATION_DETECTION", "location": {"coordinates": [77.57128, 13.028377], "type": "Point"}}, {"id": "5b778007-797e-4313-b34c-c7c4812365bb", "junctionName": "TavarekereMainJN", "cameraUsage": "ANPR", "observationDateTime": "2024-02-21T13:38:39+05:30", "vehicleType": "Motorbike", "alertType": "RED_LIGHT_VIOLATION_DETECTION", "location": {"coordinates": [77.609731, 12.934747], "type": "Point"}}, {"alertType": "STOP_LINE_VIOLATION", "observationDateTime": "2024-02-21T13:38:55+05:30", "location": {"type": "Point", "coordinates": [77.554162, 12.984416]}, "id": "5b778007-797e-4313-b34c-c7c4812365bb", "cameraUsage": "ANPR", "junctionName": "bashyamcirclerajajinagar", "vehicleType": "Undetermined"}, {"alertType": "RED_LIGHT_VIOLATION_DETECTION", "observationDateTime": "2024-02-21T13:38:53+05:30", "location": {"type": "Point", "coordinates": [77.553042, 12.998237]}, "id": "5b778007-797e-4313-b34c-c7c4812365bb", "cameraUsage": "ANPR", "junctionName": "Navarangacircle", "vehicleType": "Car"}, {"alertType": "STOP_LINE_VIOLATION", "observationDateTime": "2024-02-21T13:38:51+05:30", "location": {"type": "Point", "coordinates": [77.553042, 12.998237]}, "id": "5b778007-797e-4313-b34c-c7c4812365bb", "cameraUsage": "ANPR", "junctionName": "Navarangacircle", "vehicleType": "Motorbike"}, {"alertType": "LICENCE_PLATE_RECOGNITION", "observationDateTime": "2024-02-21T13:38:51+05:30", "location": {"type": "Point", "coordinates": [77.61448, 12.991661]}, "id": "5b778007-797e-4313-b34c-c7c4812365bb", "cameraUsage": "ANPR", "junctionName": "PromenadeWheelresroadJn", "vehicleType": "Motorbike"}, {"alertType": "STOP_LINE_VIOLATION", "observationDateTime": "2024-02-21T13:38:49+05:30", "location": {"type": "Point", "coordinates": [77.554162, 12.984416]}, "id": "5b778007-797e-4313-b34c-c7c4812365bb", "cameraUsage": "ANPR", "junctionName": "bashyamcirclerajajinagar", "vehicleType": "Undetermined"}, {"id": "5b778007-797e-4313-b34c-c7c4812365bb", "junctionName": "PromenadeWheelresroadJn", "cameraUsage": "ANPR", "observationDateTime": "2024-02-21T13:39:04+05:30", "vehicleType": "Motorbike", "alertType": "STOP_LINE_VIOLATION", "location": {"coordinates": [77.61448, 12.991661], "type": "Point"}}, {"id": "5b778007-797e-4313-b34c-c7c4812365bb", "junctionName": "PromenadeWheelresroadJn", "cameraUsage": "ANPR", "observationDateTime": "2024-02-21T13:39:04+05:30", "vehicleType": "Motorbike", "alertType": "STOP_LINE_VIOLATION", "location": {"coordinates": [77.61448, 12.991661], "type": "Point"}}, {"id": "5b778007-797e-4313-b34c-c7c4812365bb", "junctionName": "PromenadeWheelresroadJn", "cameraUsage": "ANPR", "observationDateTime": "2024-02-21T13:39:04+05:30", "vehicleType": "Motorbike", "alertType": "STOP_LINE_VIOLATION", "location": {"coordinates": [77.61448, 12.991661], "type": "Point"}}, {"id": "5b778007-797e-4313-b34c-c7c4812365bb", "junctionName": "BhashyamCircle", "cameraUsage": "ANPR", "observationDateTime": "2024-02-21T13:39:03+05:30", "vehicleType": "Motorbike", "alertType": "RED_LIGHT_VIOLATION_DETECTION", "location": {"coordinates": [77.578765, 13.006399], "type": "Point"}}, {"id": "5b778007-797e-4313-b34c-c7c4812365bb", "junctionName": "BhashyamCircle", "cameraUsage": "ANPR", "observationDateTime": "2024-02-21T13:39:03+05:30", "vehicleType": "Motorbike", "alertType": "RED_LIGHT_VIOLATION_DETECTION", "location": {"coordinates": [77.578765, 13.006399], "type": "Point"}}, {"id": "5b778007-797e-4313-b34c-c7c4812365bb", "junctionName": "BhashyamCircle", "cameraUsage": "ANPR", "observationDateTime": "2024-02-21T13:39:02+05:30", "vehicleType": "Motorbike", "alertType": "RED_LIGHT_VIOLATION_DETECTION", "location": {"coordinates": [77.578765, 13.006399], "type": "Point"}}, {"id": "5b778007-797e-4313-b34c-c7c4812365bb", "junctionName": "PromenadeWheelresroadJn", "cameraUsage": "ANPR", "observationDateTime": "2024-02-21T13:39:01+05:30", "vehicleType": "Motorbike", "alertType": "STOP_LINE_VIOLATION", "location": {"coordinates": [77.61448, 12.991661], "type": "Point"}}, {"id": "5b778007-797e-4313-b34c-c7c4812365bb", "junctionName": "bashyamcirclerajajinagar", "cameraUsage": "ANPR", "observationDateTime": "2024-02-21T13:38:59+05:30", "vehicleType": "Undetermined", "alertType": "STOP_LINE_VIOLATION", "location": {"coordinates": [77.554162, 12.984416], "type": "Point"}}, {"alertType": "RED_LIGHT_VIOLATION_DETECTION", "observationDateTime": "2024-02-21T13:39:11+05:30", "location": {"type": "Point", "coordinates": [77.643319, 13.009179]}, "id": "5b778007-797e-4313-b34c-c7c4812365bb", "cameraUsage": "ANPR", "junctionName": "DoddaBanaswadi", "vehicleType": "Undetermined"}, {"alertType": "STOP_LINE_VIOLATION", "observationDateTime": "2024-02-21T13:39:10+05:30", "location": {"type": "Point", "coordinates": [77.61448, 12.991661]}, "id": "5b778007-797e-4313-b34c-c7c4812365bb", "cameraUsage": "ANPR", "junctionName": "PromenadeWheelresroadJn", "vehicleType": "Motorbike"}, {"alertType": "LICENCE_PLATE_RECOGNITION", "observationDateTime": "2024-02-21T13:39:10+05:30", "location": {"type": "Point", "coordinates": [77.595183, 12.910289]}, "id": "5b778007-797e-4313-b34c-c7c4812365bb", "cameraUsage": "ANPR", "junctionName": "JPnagar-8thmain-9thcross", "vehicleType": "Motorbike"}, {"alertType": "RED_LIGHT_VIOLATION_DETECTION", "observationDateTime": "2024-02-21T13:39:10+05:30", "location": {"type": "Point", "coordinates": [77.549943, 12.925376]}, "id": "5b778007-797e-4313-b34c-c7c4812365bb", "cameraUsage": "ANPR", "junctionName": "KathriguppaCircle", "vehicleType": "Car"}, {"alertType": "RED_LIGHT_VIOLATION_DETECTION", "observationDateTime": "2024-02-21T13:39:25+05:30", "location": {"type": "Point", "coordinates": [77.578765, 13.006399]}, "id": "5b778007-797e-4313-b34c-c7c4812365bb", "cameraUsage": "ANPR", "junctionName": "BhashyamCircle", "vehicleType": "Car"}, {"alertType": "STOP_LINE_VIOLATION", "observationDateTime": "2024-02-21T13:39:24+05:30", "location": {"type": "Point", "coordinates": [77.640837, 12.978368]}, "id": "5b778007-797e-4313-b34c-c7c4812365bb", "cameraUsage": "ANPR", "junctionName": "IndiranagarKFCJun", "vehicleType": "Car"}, {"alertType": "RED_LIGHT_VIOLATION_DETECTION", "observationDateTime": "2024-02-21T13:39:20+05:30", "location": {"type": "Point", "coordinates": [77.631421, 12.981592]}, "id": "5b778007-797e-4313-b34c-c7c4812365bb", "cameraUsage": "ANPR", "junctionName": "SwamiVivekananda", "vehicleType": "Auto"}, {"alertType": "RED_LIGHT_VIOLATION_DETECTION", "observationDateTime": "2024-02-21T13:39:20+05:30", "location": {"type": "Point", "coordinates": [77.63721, 13.022783]}, "id": "5b778007-797e-4313-b34c-c7c4812365bb", "cameraUsage": "ANPR", "junctionName": "Mariyappacircle", "vehicleType": "Motorbike"}, {"alertType": "RED_LIGHT_VIOLATION_DETECTION", "observationDateTime": "2024-02-21T13:39:19+05:30", "location": {"type": "Point", "coordinates": [77.631421, 12.981592]}, "id": "5b778007-797e-4313-b34c-c7c4812365bb", "cameraUsage": "ANPR", "junctionName": "SwamiVivekananda", "vehicleType": "Auto"}, {"alertType": "RED_LIGHT_VIOLATION_DETECTION", "observationDateTime": "2024-02-21T13:39:34+05:30", "location": {"type": "Point", "coordinates": [77.576809, 12.948272]}, "id": "5b778007-797e-4313-b34c-c7c4812365bb", "cameraUsage": "ANPR", "junctionName": "VanivilasJN", "vehicleType": "Bus"}, {"alertType": "RED_LIGHT_VIOLATION_DETECTION", "observationDateTime": "2024-02-21T13:39:33+05:30", "location": {"type": "Point", "coordinates": [77.580123, 12.930848]}, "id": "5b778007-797e-4313-b34c-c7c4812365bb", "cameraUsage": "ANPR", "junctionName": "Jayanagar-4thMain", "vehicleType": "Motorbike"}, {"alertType": "RED_LIGHT_VIOLATION_DETECTION", "observationDateTime": "2024-02-21T13:39:33+05:30", "location": {"type": "Point", "coordinates": [77.580123, 12.930848]}, "id": "5b778007-797e-4313-b34c-c7c4812365bb", "cameraUsage": "ANPR", "junctionName": "Jayanagar-4thMain", "vehicleType": "Motorbike"}, {"alertType": "STOP_LINE_VIOLATION", "observationDateTime": "2024-02-21T13:39:33+05:30", "location": {"type": "Point", "coordinates": [77.580123, 12.930848]}, "id": "5b778007-797e-4313-b34c-c7c4812365bb", "cameraUsage": "ANPR", "junctionName": "Jayanagar-4thMain", "vehicleType": "Motorbike"}, {"alertType": "RED_LIGHT_VIOLATION_DETECTION", "observationDateTime": "2024-02-21T13:39:33+05:30", "location": {"type": "Point", "coordinates": [77.580123, 12.930848]}, "id": "5b778007-797e-4313-b34c-c7c4812365bb", "cameraUsage": "ANPR", "junctionName": "Jayanagar-4thMain", "vehicleType": "Auto"}, {"alertType": "STOP_LINE_VIOLATION", "observationDateTime": "2024-02-21T13:39:32+05:30", "location": {"type": "Point", "coordinates": [77.580123, 12.930848]}, "id": "5b778007-797e-4313-b34c-c7c4812365bb", "cameraUsage": "ANPR", "junctionName": "Jayanagar-4thMain", "vehicleType": "Motorbike"}, {"alertType": "STOP_LINE_VIOLATION", "observationDateTime": "2024-02-21T13:39:30+05:30", "location": {"type": "Point", "coordinates": [77.646621, 12.978562]}, "id": "5b778007-797e-4313-b34c-c7c4812365bb", "cameraUsage": "ANPR", "junctionName": "CMHHospitalJn", "vehicleType": "Motorbike"}, {"alertType": "RED_LIGHT_VIOLATION_DETECTION", "observationDateTime": "2024-02-21T13:39:29+05:30", "location": {"type": "Point", "coordinates": [77.576809, 12.948272]}, "id": "5b778007-797e-4313-b34c-c7c4812365bb", "cameraUsage": "ANPR", "junctionName": "VanivilasJN", "vehicleType": "Car"}, {"id": "5b778007-797e-4313-b34c-c7c4812365bb", "junctionName": "Jayanagar-4thMain", "cameraUsage": "ANPR", "observationDateTime": "2024-02-21T13:39:44+05:30", "vehicleType": "Motorbike", "alertType": "STOP_LINE_VIOLATION", "location": {"coordinates": [77.580123, 12.930848], "type": "Point"}}, {"id": "5b778007-797e-4313-b34c-c7c4812365bb", "junctionName": "Jayanagar-4thMain", "cameraUsage": "ANPR", "observationDateTime": "2024-02-21T13:39:44+05:30", "vehicleType": "Motorbike", "alertType": "STOP_LINE_VIOLATION", "location": {"coordinates": [77.580123, 12.930848], "type": "Point"}}, {"id": "5b778007-797e-4313-b34c-c7c4812365bb", "junctionName": "Jayanagar-4thMain", "cameraUsage": "ANPR", "observationDateTime": "2024-02-21T13:39:43+05:30", "vehicleType": "Undetermined", "alertType": "RED_LIGHT_VIOLATION_DETECTION", "location": {"coordinates": [77.580123, 12.930848], "type": "Point"}}, {"id": "5b778007-797e-4313-b34c-c7c4812365bb", "junctionName": "Jayanagar-4thMain", "cameraUsage": "ANPR", "observationDateTime": "2024-02-21T13:39:43+05:30", "vehicleType": "Motorbike", "alertType": "STOP_LINE_VIOLATION", "location": {"coordinates": [77.580123, 12.930848], "type": "Point"}}, {"id": "5b778007-797e-4313-b34c-c7c4812365bb", "junctionName": "SampigeRoad", "cameraUsage": "ANPR", "observationDateTime": "2024-02-21T13:39:41+05:30", "vehicleType": "Auto", "alertType": "LICENCE_PLATE_RECOGNITION", "location": {"coordinates": [77.571138, 13.008491], "type": "Point"}}, {"id": "5b778007-797e-4313-b34c-c7c4812365bb", "junctionName": "GPOCircle", "cameraUsage": "ANPR", "observationDateTime": "2024-02-21T13:39:40+05:30", "vehicleType": "Auto", "alertType": "RED_LIGHT_VIOLATION_DETECTION", "location": {"coordinates": [77.594711, 12.981865], "type": "Point"}}, {"id": "5b778007-797e-4313-b34c-c7c4812365bb", "junctionName": "GPOCircle", "cameraUsage": "ANPR", "observationDateTime": "2024-02-21T13:39:40+05:30", "vehicleType": "Car", "alertType": "RED_LIGHT_VIOLATION_DETECTION", "location": {"coordinates": [77.594711, 12.981865], "type": "Point"}}, {"id": "5b778007-797e-4313-b34c-c7c4812365bb", "junctionName": "GPOCircle", "cameraUsage": "ANPR", "observationDateTime": "2024-02-21T13:39:40+05:30", "vehicleType": "Auto", "alertType": "RED_LIGHT_VIOLATION_DETECTION", "location": {"coordinates": [77.594711, 12.981865], "type": "Point"}}, {"id": "5b778007-797e-4313-b34c-c7c4812365bb", "junctionName": "Jayanagar-4thMain", "cameraUsage": "ANPR", "observationDateTime": "2024-02-21T13:39:40+05:30", "vehicleType": "Motorbike", "alertType": "STOP_LINE_VIOLATION", "location": {"coordinates": [77.580123, 12.930848], "type": "Point"}}, {"id": "5b778007-797e-4313-b34c-c7c4812365bb", "junctionName": "Jayanagar-4thMain", "cameraUsage": "ANPR", "observationDateTime": "2024-02-21T13:39:39+05:30", "vehicleType": "Motorbike", "alertType": "RED_LIGHT_VIOLATION_DETECTION", "location": {"coordinates": [77.580123, 12.930848], "type": "Point"}}, {"id": "5b778007-797e-4313-b34c-c7c4812365bb", "junctionName": "Jayanagar-4thMain", "cameraUsage": "ANPR", "observationDateTime": "2024-02-21T13:39:39+05:30", "vehicleType": "Auto", "alertType": "STOP_LINE_VIOLATION", "location": {"coordinates": [77.580123, 12.930848], "type": "Point"}}, {"id": "5b778007-797e-4313-b34c-c7c4812365bb", "junctionName": "Jayanagar-4thMain", "cameraUsage": "ANPR", "observationDateTime": "2024-02-21T13:39:39+05:30", "vehicleType": "Motorbike", "alertType": "RED_LIGHT_VIOLATION_DETECTION", "location": {"coordinates": [77.580123, 12.930848], "type": "Point"}}, {"id": "5b778007-797e-4313-b34c-c7c4812365bb", "junctionName": "Jayanagar-4thMain", "cameraUsage": "ANPR", "observationDateTime": "2024-02-21T13:39:39+05:30", "vehicleType": "Motorbike", "alertType": "RED_LIGHT_VIOLATION_DETECTION", "location": {"coordinates": [77.580123, 12.930848], "type": "Point"}}, {"id": "5b778007-797e-4313-b34c-c7c4812365bb", "junctionName": "Jayanagar-4thMain", "cameraUsage": "ANPR", "observationDateTime": "2024-02-21T13:39:39+05:30", "vehicleType": "Motorbike", "alertType": "STOP_LINE_VIOLATION", "location": {"coordinates": [77.580123, 12.930848], "type": "Point"}}, {"alertType": "RED_LIGHT_VIOLATION_DETECTION", "observationDateTime": "2024-02-21T13:39:51+05:30", "location": {"type": "Point", "coordinates": [77.580123, 12.930848]}, "id": "5b778007-797e-4313-b34c-c7c4812365bb", "cameraUsage": "ANPR", "junctionName": "Jayanagar-4thMain", "vehicleType": "Motorbike"}, {"alertType": "STOP_LINE_VIOLATION", "observationDateTime": "2024-02-21T13:39:50+05:30", "location": {"type": "Point", "coordinates": [77.580123, 12.930848]}, "id": "5b778007-797e-4313-b34c-c7c4812365bb", "cameraUsage": "ANPR", "junctionName": "Jayanagar-4thMain", "vehicleType": "Motorbike"}, {"alertType": "RED_LIGHT_VIOLATION_DETECTION", "observationDateTime": "2024-02-21T13:39:50+05:30", "location": {"type": "Point", "coordinates": [77.580123, 12.930848]}, "id": "5b778007-797e-4313-b34c-c7c4812365bb", "cameraUsage": "ANPR", "junctionName": "Jayanagar-4thMain", "vehicleType": "Car"}, {"alertType": "RED_LIGHT_VIOLATION_DETECTION", "observationDateTime": "2024-02-21T13:39:50+05:30", "location": {"type": "Point", "coordinates": [77.553042, 12.998237]}, "id": "5b778007-797e-4313-b34c-c7c4812365bb", "cameraUsage": "ANPR", "junctionName": "Navarangacircle", "vehicleType": "Motorbike"}, {"alertType": "LICENCE_PLATE_RECOGNITION", "observationDateTime": "2024-02-21T13:39:49+05:30", "location": {"type": "Point", "coordinates": [77.615204, 12.91602]}, "id": "5b778007-797e-4313-b34c-c7c4812365bb", "cameraUsage": "ANPR", "junctionName": "AXASignal", "vehicleType": "Carrier"}, {"alertType": "STOP_LINE_VIOLATION", "observationDateTime": "2024-02-21T13:39:49+05:30", "location": {"type": "Point", "coordinates": [77.580123, 12.930848]}, "id": "5b778007-797e-4313-b34c-c7c4812365bb", "cameraUsage": "ANPR", "junctionName": "Jayanagar-4thMain", "vehicleType": "Motorbike"}, {"alertType": "RED_LIGHT_VIOLATION_DETECTION", "observationDateTime": "2024-02-21T13:39:49+05:30", "location": {"type": "Point", "coordinates": [77.580123, 12.930848]}, "id": "5b778007-797e-4313-b34c-c7c4812365bb", "cameraUsage": "ANPR", "junctionName": "Jayanagar-4thMain", "vehicleType": "Motorbike"},